[
  {
    "id": 1,
    "name": "Wolff-Ebert",
    "categories": {
      "18": [
        3,
        2
      ]
    },
    "price": 2127080,
    "adress": "8 Loomis Trail",
    "latitude": 4.51358,
    "longitude": -74.09736,
    "description": "con proyecciones especiales de cineastas emergentes que abordan temas únicos y provocadores."
  },
  {
    "id": 2,
    "name": "Denesik Inc",
    "categories": {
      "2": [
        0,
        1
      ],
      "14": [
        0
      ]
    },
    "price": 885763,
    "adress": "3855 High Crossing Court",
    "latitude": 4.63218,
    "longitude": -74.0733,
    "description": "Aprende a crear tus propias piezas de cerámica en un taller práctico"
  },
  {
    "id": 3,
    "name": "Murray Inc",
    "categories": {
      "9": [
        2,
        1
      ],
      "14": [
        3,
        2
      ]
    },
    "price": 7999268,
    "adress": "945 Killdeer Circle",
    "latitude": 4.73559,
    "longitude": -74.20358,
    "description": "Celebra una fiesta al aire libre con música en vivo"
  },
  {
    "id": 4,
    "name": "Treutel, Schuppe and Swaniawski",
    "categories": {
      "5": [
        4
      ],
      "13": [
        2,
        1
      ]
    },
    "price": 6091305,
    "adress": "9422 Eagan Junction",
    "latitude": 4.54394,
    "longitude": -74.07836,
    "description": "Ayuda a recaudar fondos para causas benéficas en una subasta que incluye obras de arte y experiencias exclusivas para los participantes más generosos."
  },
  {
    "id": 5,
    "name": "Koelpin LLC",
    "categories": {
      "1": [
        4
      ]
    },
    "price": 4391352,
    "adress": "225 Ramsey Park",
    "latitude": 4.55936,
    "longitude": -74.18614,
    "description": "el bienestar y la actividad física en un evento lleno de energía."
  },
  {
    "id": 6,
    "name": "Pacocha, Satterfield and Barton",
    "categories": {
      "14": [
        1,
        3
      ]
    },
    "price": 8555949,
    "adress": "76 Donald Road",
    "latitude": 4.74826,
    "longitude": -74.10537,
    "description": "mostrando cómo la IA está transformando diversas industrias y mejorando la productividad."
  },
  {
    "id": 7,
    "name": "Pollich-Becker",
    "categories": {
      "12": [
        2
      ]
    },
    "price": 8137489,
    "adress": "4272 Cordelia Parkway",
    "latitude": 4.61794,
    "longitude": -74.02604,
    "description": "explorando desde el diseño gráfico hasta la programación básica."
  },
  {
    "id": 8,
    "name": "Koss, Kiehn and Quigley",
    "categories": {
      "10": [
        1
      ]
    },
    "price": 1352093,
    "adress": "33 Steensland Place",
    "latitude": 4.68363,
    "longitude": -74.04342,
    "description": "Descubre el mundo del cine animado en un festival que reúne a los mejores cortometrajes y largometrajes de animación de todo el mundo."
  },
  {
    "id": 9,
    "name": "McGlynn, Towne and Huels",
    "categories": {
      "2": [
        0
      ],
      "5": [
        1,
        4
      ],
      "17": [
        0
      ]
    },
    "price": 4834490,
    "adress": "14215 Bluejay Lane",
    "latitude": 4.50339,
    "longitude": -74.07197,
    "description": "Vive la adrenalina de un torneo de baloncesto donde los equipos locales compiten por el título de campeones en un ambiente lleno de energía."
  },
  {
    "id": 10,
    "name": "Nader, Rice and Balistreri",
    "categories": {
      "12": [
        3,
        0
      ]
    },
    "price": 5640605,
    "adress": "33 Algoma Terrace",
    "latitude": 4.72456,
    "longitude": -74.19053,
    "description": "Únete a miles de corredores en un maratón por la ciudad"
  },
  {
    "id": 11,
    "name": "Anderson and Sons",
    "categories": {
      "4": [
        3,
        2
      ],
      "17": [
        0
      ]
    },
    "price": 8058683,
    "adress": "7343 Bonner Parkway",
    "latitude": 4.65569,
    "longitude": -74.1289,
    "description": "Aprende a hacer fotografía artística en un taller donde descubrirás técnicas de composición y edición para capturar imágenes únicas y creativas."
  },
  {
    "id": 12,
    "name": "Hamill-Cartwright",
    "categories": {
      "18": [
        2
      ]
    },
    "price": 7901607,
    "adress": "77 Scott Point",
    "latitude": 4.81755,
    "longitude": -74.10555,
    "description": "baile y fuegos artificiales que te harán despedir el año en grande."
  },
  {
    "id": 13,
    "name": "Abshire-Zemlak",
    "categories": {
      "4": [
        3,
        2
      ],
      "17": [
        3
      ],
      "19": [
        3
      ]
    },
    "price": 650773,
    "adress": "98155 Union Drive",
    "latitude": 4.81526,
    "longitude": -74.14144,
    "description": "música en vivo y premios para los mejores disfraces de la noche."
  },
  {
    "id": 14,
    "name": "Koepp Inc",
    "categories": {
      "14": [
        4,
        0
      ],
      "18": [
        4,
        3
      ]
    },
    "price": 8115800,
    "adress": "2677 Vidon Place",
    "latitude": 4.51645,
    "longitude": -74.20804,
    "description": "Degusta platos de distintas culturas en un festival gastronómico que reúne a los mejores chefs del mundo en un solo lugar para celebrar la diversidad culinaria."
  },
  {
    "id": 15,
    "name": "Yundt Inc",
    "categories": {
      "1": [
        0,
        4
      ],
      "2": [
        2,
        1
      ],
      "7": [
        3,
        2
      ]
    },
    "price": 5275237,
    "adress": "262 Fieldstone Road",
    "latitude": 4.70085,
    "longitude": -74.19817,
    "description": "baile y fuegos artificiales que te harán despedir el año en grande."
  },
  {
    "id": 16,
    "name": "Cole-King",
    "categories": {
      "6": [
        3
      ],
      "12": [
        4
      ],
      "14": [
        1,
        0
      ]
    },
    "price": 9290123,
    "adress": "02 Michigan Circle",
    "latitude": 4.66489,
    "longitude": -74.24572,
    "description": "Comparte una noche de teatro experimental donde las emociones se transmiten a través de actuaciones impactantes y minimalistas."
  },
  {
    "id": 17,
    "name": "Durgan-Windler",
    "categories": {
      "20": [
        3,
        1
      ]
    },
    "price": 4618376,
    "adress": "7 Schmedeman Court",
    "latitude": 4.65173,
    "longitude": -74.10977,
    "description": "Disfruta de un festival de cine de terror con maratones de películas que te mantendrán al borde del asiento durante toda la noche."
  },
  {
    "id": 18,
    "name": "Towne-Nader",
    "categories": {
      "3": [
        4,
        0
      ],
      "12": [
        0,
        1
      ],
      "14": [
        0,
        1
      ]
    },
    "price": 3026847,
    "adress": "97657 Barnett Trail",
    "latitude": 4.74285,
    "longitude": -74.24186,
    "description": "explorando desde el diseño gráfico hasta la programación básica."
  },
  {
    "id": 19,
    "name": "DuBuque-Murray",
    "categories": {
      "5": [
        0,
        1
      ],
      "19": [
        1
      ]
    },
    "price": 9093130,
    "adress": "57927 Welch Hill",
    "latitude": 4.64585,
    "longitude": -74.21444,
    "description": "Asiste a una clase de fitness grupal en el parque donde un entrenador te guiará a través de ejercicios para mejorar tu fuerza y resistencia."
  },
  {
    "id": 20,
    "name": "Rolfson Group",
    "categories": {
      "5": [
        0,
        1
      ],
      "6": [
        4,
        3
      ],
      "16": [
        3
      ]
    },
    "price": 4065808,
    "adress": "76696 Bunker Hill Terrace",
    "latitude": 4.58264,
    "longitude": -74.05224,
    "description": "subastas y cenas exquisitas para apoyar una causa social importante."
  },
  {
    "id": 21,
    "name": "Sauer-Reichel",
    "categories": {
      "2": [
        4,
        3
      ],
      "5": [
        3
      ]
    },
    "price": 6590960,
    "adress": "410 Sage Alley",
    "latitude": 4.55616,
    "longitude": -74.15025,
    "description": "Asiste a un congreso de negocios donde líderes de la industria compartirán estrategias clave para enfrentar los desafíos del mercado global."
  },
  {
    "id": 22,
    "name": "McLaughlin, Thompson and Hansen",
    "categories": {
      "5": [
        2
      ],
      "19": [
        2,
        3
      ]
    },
    "price": 1165802,
    "adress": "93140 Fairview Drive",
    "latitude": 4.47271,
    "longitude": -74.16411,
    "description": "Aprende a desarrollar tu videojuego en un taller para principiantes"
  },
  {
    "id": 23,
    "name": "Greenfelder Group",
    "categories": {
      "3": [
        0,
        4
      ],
      "9": [
        3,
        2
      ],
      "18": [
        3,
        2
      ]
    },
    "price": 418995,
    "adress": "20 Schmedeman Center",
    "latitude": 4.59821,
    "longitude": -74.24452,
    "description": "seguido de un debate con los realizadores sobre sus motivaciones e investigaciones."
  },
  {
    "id": 24,
    "name": "Feest Group",
    "categories": {
      "15": [
        0
      ]
    },
    "price": 1695784,
    "adress": "558 Ridge Oak Parkway",
    "latitude": 4.75169,
    "longitude": -74.22264,
    "description": "Celebra una fiesta al aire libre con música en vivo"
  },
  {
    "id": 25,
    "name": "Langosh Inc",
    "categories": {
      "10": [
        1
      ]
    },
    "price": 4826097,
    "adress": "5378 Farragut Place",
    "latitude": 4.81062,
    "longitude": -74.01357,
    "description": "Disfruta de una noche de jazz en vivo con una banda que interpretará los mejores clásicos y nuevas composiciones en un ambiente relajado."
  },
  {
    "id": 26,
    "name": "Harvey, Keeling and O'Kon",
    "categories": {
      "18": [
        3,
        1
      ]
    },
    "price": 4390504,
    "adress": "1 Debra Point",
    "latitude": 4.58189,
    "longitude": -74.10819,
    "description": "Vive una experiencia única en un viaje de ecoturismo que te llevará a explorar áreas naturales protegidas mientras contribuyes a su conservación."
  },
  {
    "id": 27,
    "name": "Reilly, Oberbrunner and Bailey",
    "categories": {
      "5": [
        0
      ],
      "8": [
        4,
        2
      ],
      "16": [
        4,
        0
      ]
    },
    "price": 783835,
    "adress": "42353 Harbort Street",
    "latitude": 4.78601,
    "longitude": -74.01063,
    "description": "en una feria donde las empresas más importantes presentan sus avances."
  },
  {
    "id": 28,
    "name": "Mante-Nader",
    "categories": {
      "8": [
        3
      ],
      "10": [
        3,
        2
      ],
      "15": [
        2
      ]
    },
    "price": 8962333,
    "adress": "0 Clyde Gallagher Court",
    "latitude": 4.72882,
    "longitude": -74.11892,
    "description": "Recorre una galería con piezas de arte contemporáneo creadas por artistas locales"
  },
  {
    "id": 29,
    "name": "Ernser-Kunde",
    "categories": {
      "15": [
        1
      ]
    },
    "price": 4380966,
    "adress": "87737 Meadow Vale Center",
    "latitude": 4.63784,
    "longitude": -74.08394,
    "description": "Recorre una galería con piezas de arte contemporáneo creadas por artistas locales"
  },
  {
    "id": 30,
    "name": "Herzog, Stracke and Wilkinson",
    "categories": {
      "2": [
        1
      ],
      "15": [
        1,
        4
      ]
    },
    "price": 6998303,
    "adress": "25 Upham Place",
    "latitude": 4.7231,
    "longitude": -74.02441,
    "description": "Celebra una fiesta al aire libre con música en vivo"
  },
  {
    "id": 31,
    "name": "Cruickshank Group",
    "categories": {
      "17": [
        3,
        0
      ]
    },
    "price": 7721844,
    "adress": "8718 Ridge Oak Crossing",
    "latitude": 4.58199,
    "longitude": -74.09906,
    "description": "Asiste a una conferencia de innovación tecnológica donde visionarios presentarán los próximos avances que cambiarán el mundo."
  },
  {
    "id": 32,
    "name": "Abernathy, O'Hara and Walsh",
    "categories": {
      "8": [
        1,
        0
      ],
      "20": [
        1,
        2
      ]
    },
    "price": 8321493,
    "adress": "29 Melvin Road",
    "latitude": 4.58754,
    "longitude": -74.10481,
    "description": "Asiste a una clase de fitness grupal en el parque donde un entrenador te guiará a través de ejercicios para mejorar tu fuerza y resistencia."
  },
  {
    "id": 33,
    "name": "Kuhic-Bernier",
    "categories": {
      "6": [
        3
      ],
      "17": [
        1,
        0
      ]
    },
    "price": 4485181,
    "adress": "1328 Vahlen Hill",
    "latitude": 4.59908,
    "longitude": -74.21755,
    "description": "Participa en una charla motivacional con emprendedores de éxito que compartirán sus experiencias y consejos para superar obstáculos y alcanzar tus metas."
  },
  {
    "id": 34,
    "name": "Hills and Sons",
    "categories": {
      "6": [
        1
      ],
      "10": [
        0,
        1
      ]
    },
    "price": 7381532,
    "adress": "00 Stone Corner Street",
    "latitude": 4.5056,
    "longitude": -74.20502,
    "description": "Únete a una clase de yoga al aire libre"
  },
  {
    "id": 35,
    "name": "Schulist-Wisozk",
    "categories": {
      "15": [
        4
      ]
    },
    "price": 8336848,
    "adress": "918 Barby Place",
    "latitude": 4.65133,
    "longitude": -74.1795,
    "description": "Participa en un retiro espiritual en las montañas"
  },
  {
    "id": 36,
    "name": "Boehm, Hills and Hessel",
    "categories": {
      "11": [
        2,
        3
      ],
      "17": [
        2,
        1
      ]
    },
    "price": 6690610,
    "adress": "9587 Corry Junction",
    "latitude": 4.81358,
    "longitude": -74.10402,
    "description": "Expertos en inteligencia artificial presentarán los últimos avances en tecnología"
  },
  {
    "id": 37,
    "name": "Barrows-Gislason",
    "categories": {
      "17": [
        3,
        1
      ],
      "19": [
        4,
        2
      ]
    },
    "price": 153563,
    "adress": "51740 Towne Drive",
    "latitude": 4.81411,
    "longitude": -74.17789,
    "description": "para relajarte y mejorar tu bienestar físico y mental en un entorno pacífico."
  },
  {
    "id": 38,
    "name": "Bergnaum, Mann and Stanton",
    "categories": {
      "2": [
        0
      ],
      "6": [
        2
      ],
      "17": [
        4
      ]
    },
    "price": 984136,
    "adress": "521 Hoffman Circle",
    "latitude": 4.55512,
    "longitude": -74.19243,
    "description": "Aprende a hacer fotografía artística en un taller donde descubrirás técnicas de composición y edición para capturar imágenes únicas y creativas."
  },
  {
    "id": 39,
    "name": "Heller, Bernier and Haley",
    "categories": {
      "4": [
        0,
        1
      ],
      "8": [
        2,
        1
      ],
      "19": [
        3,
        0
      ]
    },
    "price": 4447766,
    "adress": "2 Corscot Way",
    "latitude": 4.51667,
    "longitude": -74.23937,
    "description": "Descubre el mundo del cine animado en un festival que reúne a los mejores cortometrajes y largometrajes de animación de todo el mundo."
  },
  {
    "id": 40,
    "name": "Sipes LLC",
    "categories": {
      "3": [
        2,
        1
      ],
      "16": [
        0,
        3
      ],
      "17": [
        1,
        0
      ]
    },
    "price": 9398321,
    "adress": "3 Sutteridge Terrace",
    "latitude": 4.47867,
    "longitude": -74.10903,
    "description": "Vive la experiencia de una gala de caridad con música en vivo"
  },
  {
    "id": 41,
    "name": "Hills Inc",
    "categories": {
      "13": [
        2
      ],
      "19": [
        1
      ]
    },
    "price": 5114592,
    "adress": "35 Clove Trail",
    "latitude": 4.51883,
    "longitude": -74.09933,
    "description": "para relajarte y mejorar tu bienestar físico y mental en un entorno pacífico."
  },
  {
    "id": 42,
    "name": "Huels-Schmeler",
    "categories": {
      "11": [
        1,
        3
      ],
      "18": [
        0,
        1
      ]
    },
    "price": 8640691,
    "adress": "66684 Morningstar Lane",
    "latitude": 4.75296,
    "longitude": -74.08234,
    "description": "Ayuda a recaudar fondos para causas benéficas en una subasta que incluye obras de arte y experiencias exclusivas para los participantes más generosos."
  },
  {
    "id": 43,
    "name": "Hirthe LLC",
    "categories": {
      "3": [
        1
      ],
      "11": [
        4
      ]
    },
    "price": 5025842,
    "adress": "44906 Kim Park",
    "latitude": 4.72827,
    "longitude": -74.18098,
    "description": "Sumérgete en un festival cultural que celebra las tradiciones locales con danzas folclóricas"
  },
  {
    "id": 44,
    "name": "Crooks, Champlin and Schinner",
    "categories": {
      "2": [
        0,
        3
      ],
      "15": [
        2
      ]
    },
    "price": 7650280,
    "adress": "694 Darwin Court",
    "latitude": 4.70828,
    "longitude": -73.99117,
    "description": "donde podrás desconectar del mundo exterior y reconectar con tu ser interior a través de la meditación."
  },
  {
    "id": 45,
    "name": "Bogan Group",
    "categories": {
      "16": [
        4,
        2
      ],
      "19": [
        2,
        0
      ]
    },
    "price": 2686705,
    "adress": "4342 Fieldstone Alley",
    "latitude": 4.76696,
    "longitude": -74.19584,
    "description": "Participa en una feria de empleo donde empresas internacionales están buscando nuevos talentos y podrás postularte a diversas oportunidades laborales."
  },
  {
    "id": 46,
    "name": "Roberts-Sporer",
    "categories": {
      "13": [
        2,
        1
      ],
      "19": [
        0,
        1
      ]
    },
    "price": 8831458,
    "adress": "15228 Lake View Park",
    "latitude": 4.65733,
    "longitude": -74.0825,
    "description": "explorando temas sociales y culturales a través de obras innovadoras."
  },
  {
    "id": 47,
    "name": "Hand, Larkin and Aufderhar",
    "categories": {
      "8": [
        1,
        0
      ],
      "9": [
        0
      ],
      "14": [
        3,
        4
      ]
    },
    "price": 2662525,
    "adress": "3 Roxbury Park",
    "latitude": 4.61302,
    "longitude": -74.16961,
    "description": "degustando sus mejores platos y aprendiendo sobre sus ingredientes secretos."
  },
  {
    "id": 48,
    "name": "Hilpert, Reichert and Auer",
    "categories": {
      "8": [
        2
      ]
    },
    "price": 6395579,
    "adress": "344 Bunting Parkway",
    "latitude": 4.72879,
    "longitude": -74.03903,
    "description": "comida casera y momentos inolvidables de convivencia."
  },
  {
    "id": 49,
    "name": "Ankunding LLC",
    "categories": {
      "5": [
        3,
        2
      ],
      "12": [
        1
      ]
    },
    "price": 8579235,
    "adress": "2 Mayer Crossing",
    "latitude": 4.80194,
    "longitude": -74.00376,
    "description": "Participa en una charla motivacional con emprendedores de éxito que compartirán sus experiencias y consejos para superar obstáculos y alcanzar tus metas."
  },
  {
    "id": 50,
    "name": "Padberg LLC",
    "categories": {
      "16": [
        3
      ]
    },
    "price": 5228058,
    "adress": "844 Clyde Gallagher Circle",
    "latitude": 4.60842,
    "longitude": -74.1496,
    "description": "Participa en una competencia de deportes extremos que pondrá a prueba tus habilidades físicas y tu resistencia en un ambiente lleno de adrenalina."
  },
  {
    "id": 51,
    "name": "Nitzsche, Renner and Conn",
    "categories": {
      "3": [
        1
      ],
      "19": [
        2
      ]
    },
    "price": 9938547,
    "adress": "2 Mccormick Road",
    "latitude": 4.7727,
    "longitude": -74.14472,
    "description": "promoviendo la salud"
  },
  {
    "id": 52,
    "name": "McDermott-Mann",
    "categories": {
      "8": [
        3,
        0
      ],
      "14": [
        4,
        0
      ]
    },
    "price": 5314861,
    "adress": "9 Paget Crossing",
    "latitude": 4.78934,
    "longitude": -74.01783,
    "description": "Ayuda a recaudar fondos para causas benéficas en una subasta que incluye obras de arte y experiencias exclusivas para los participantes más generosos."
  },
  {
    "id": 53,
    "name": "Goyette, Homenick and Walsh",
    "categories": {
      "2": [
        3,
        2
      ],
      "11": [
        2
      ]
    },
    "price": 347035,
    "adress": "2 Arrowood Park",
    "latitude": 4.6926,
    "longitude": -73.99381,
    "description": "Disfruta de una tarde de juegos de mesa donde podrás competir con amigos o familiares en una amplia variedad de juegos estratégicos y divertidos."
  },
  {
    "id": 54,
    "name": "Kirlin Inc",
    "categories": {
      "20": [
        0
      ]
    },
    "price": 6476310,
    "adress": "68 Southridge Crossing",
    "latitude": 4.56737,
    "longitude": -74.1137,
    "description": "donde descubrirás técnicas de moldeado y esmaltado para desarrollar tu creatividad."
  },
  {
    "id": 55,
    "name": "Durgan, Carter and Gerlach",
    "categories": {
      "1": [
        0
      ],
      "4": [
        0,
        3
      ]
    },
    "price": 5314361,
    "adress": "2227 Summerview Avenue",
    "latitude": 4.62733,
    "longitude": -74.02142,
    "description": "Disfruta de una ruta gastronómica por los restaurantes más reconocidos"
  },
  {
    "id": 56,
    "name": "Pfannerstill-Howe",
    "categories": {
      "5": [
        0,
        3
      ],
      "8": [
        4,
        0
      ],
      "18": [
        4,
        0
      ]
    },
    "price": 1829246,
    "adress": "096 Mosinee Hill",
    "latitude": 4.47826,
    "longitude": -74.03448,
    "description": "explorando temas sociales y culturales a través de obras innovadoras."
  },
  {
    "id": 57,
    "name": "Ritchie-Boyer",
    "categories": {
      "18": [
        0
      ]
    },
    "price": 6677611,
    "adress": "66514 Lerdahl Parkway",
    "latitude": 4.63504,
    "longitude": -74.08351,
    "description": "comida deliciosa y actividades recreativas para toda la familia en un ambiente festivo."
  },
  {
    "id": 58,
    "name": "McClure Group",
    "categories": {
      "8": [
        4
      ],
      "16": [
        0,
        2
      ],
      "17": [
        0
      ]
    },
    "price": 5791274,
    "adress": "3393 Glacier Hill Road",
    "latitude": 4.75828,
    "longitude": -74.24253,
    "description": "Participa en una obra de teatro musical con actuaciones vibrantes"
  },
  {
    "id": 59,
    "name": "Wunsch, Kohler and Halvorson",
    "categories": {
      "8": [
        3,
        2
      ]
    },
    "price": 111115,
    "adress": "62627 New Castle Hill",
    "latitude": 4.66994,
    "longitude": -74.21633,
    "description": "mostrando cómo la IA está transformando diversas industrias y mejorando la productividad."
  },
  {
    "id": 60,
    "name": "Lubowitz Inc",
    "categories": {
      "7": [
        4
      ],
      "8": [
        3
      ]
    },
    "price": 5404682,
    "adress": "03 Mallard Pass",
    "latitude": 4.50182,
    "longitude": -74.06005,
    "description": "Vive una experiencia única en un viaje de ecoturismo que te llevará a explorar áreas naturales protegidas mientras contribuyes a su conservación."
  },
  {
    "id": 61,
    "name": "Daugherty, Berge and Beatty",
    "categories": {
      "11": [
        1,
        0
      ],
      "14": [
        2,
        1
      ]
    },
    "price": 516945,
    "adress": "456 Eliot Park",
    "latitude": 4.74646,
    "longitude": -74.05106,
    "description": "para relajarte y mejorar tu bienestar físico y mental en un entorno pacífico."
  },
  {
    "id": 62,
    "name": "Pagac LLC",
    "categories": {
      "2": [
        3
      ],
      "20": [
        0
      ]
    },
    "price": 949489,
    "adress": "328 American Junction",
    "latitude": 4.78898,
    "longitude": -74.09814,
    "description": "Sumérgete en un festival cultural que celebra las tradiciones locales con danzas folclóricas"
  },
  {
    "id": 63,
    "name": "Pollich and Sons",
    "categories": {
      "3": [
        3
      ],
      "10": [
        0
      ]
    },
    "price": 2202950,
    "adress": "918 La Follette Avenue",
    "latitude": 4.64882,
    "longitude": -74.07138,
    "description": "Aprende sobre las tendencias actuales de moda sostenible en una feria donde diseñadores y marcas presentan sus colecciones más ecológicas y responsables."
  },
  {
    "id": 64,
    "name": "Kuhic-Treutel",
    "categories": {
      "19": [
        0
      ]
    },
    "price": 8612434,
    "adress": "07 Montana Point",
    "latitude": 4.6025,
    "longitude": -74.0322,
    "description": "Comparte una noche de teatro experimental donde las emociones se transmiten a través de actuaciones impactantes y minimalistas."
  },
  {
    "id": 65,
    "name": "O'Reilly Group",
    "categories": {
      "7": [
        4
      ],
      "8": [
        0
      ],
      "10": [
        2
      ]
    },
    "price": 4157717,
    "adress": "79 Toban Park",
    "latitude": 4.54919,
    "longitude": -74.00812,
    "description": "Explora las mejores películas de cine independiente"
  },
  {
    "id": 66,
    "name": "Stokes Inc",
    "categories": {
      "9": [
        0
      ],
      "11": [
        0,
        1
      ],
      "12": [
        4
      ]
    },
    "price": 3087305,
    "adress": "8 Mitchell Pass",
    "latitude": 4.7054,
    "longitude": -74.23135,
    "description": "Disfruta de una ruta gastronómica por los restaurantes más reconocidos"
  },
  {
    "id": 67,
    "name": "Koss Inc",
    "categories": {
      "17": [
        0
      ]
    },
    "price": 6478515,
    "adress": "6977 Birchwood Point",
    "latitude": 4.56032,
    "longitude": -74.18803,
    "description": "Participa en una charla interreligiosa donde representantes de diversas creencias discutirán temas comunes y promoverán el entendimiento mutuo."
  },
  {
    "id": 68,
    "name": "Lockman-Marvin",
    "categories": {
      "4": [
        3,
        2
      ],
      "7": [
        3,
        2
      ],
      "14": [
        0,
        1
      ]
    },
    "price": 5935155,
    "adress": "48 Ruskin Parkway",
    "latitude": 4.71006,
    "longitude": -74.21279,
    "description": "Participa en un retiro espiritual en las montañas"
  },
  {
    "id": 69,
    "name": "Marvin-Keeling",
    "categories": {
      "8": [
        0,
        1
      ],
      "19": [
        3
      ]
    },
    "price": 6967798,
    "adress": "99 Bashford Court",
    "latitude": 4.4875,
    "longitude": -74.03789,
    "description": "con proyecciones especiales de cineastas emergentes que abordan temas únicos y provocadores."
  },
  {
    "id": 70,
    "name": "Cummerata-Hackett",
    "categories": {
      "5": [
        0,
        1
      ]
    },
    "price": 288356,
    "adress": "4864 Oneill Alley",
    "latitude": 4.64576,
    "longitude": -74.10375,
    "description": "Asiste a una exposición de arte callejero donde grafiteros de renombre presentan sus murales más recientes en un espacio público"
  },
  {
    "id": 71,
    "name": "Streich-White",
    "categories": {
      "10": [
        1,
        2
      ],
      "11": [
        0,
        1
      ],
      "20": [
        4,
        3
      ]
    },
    "price": 2986032,
    "adress": "7925 Sherman Street",
    "latitude": 4.70298,
    "longitude": -74.00964,
    "description": "para relajarte y mejorar tu bienestar físico y mental en un entorno pacífico."
  },
  {
    "id": 72,
    "name": "Cole, Quigley and Powlowski",
    "categories": {
      "1": [
        3,
        0
      ],
      "4": [
        4,
        0
      ]
    },
    "price": 5628310,
    "adress": "36 Toban Road",
    "latitude": 4.71211,
    "longitude": -74.15872,
    "description": "Compite en un torneo de videojuegos con los mejores jugadores de la ciudad"
  },
  {
    "id": 73,
    "name": "Shields, Hegmann and Mayert",
    "categories": {
      "4": [
        3,
        1
      ]
    },
    "price": 703361,
    "adress": "575 Anhalt Hill",
    "latitude": 4.57958,
    "longitude": -74.1017,
    "description": "Disfruta de una ruta gastronómica por los restaurantes más reconocidos"
  },
  {
    "id": 74,
    "name": "Koelpin-Pagac",
    "categories": {
      "4": [
        0
      ],
      "17": [
        1,
        2
      ]
    },
    "price": 8535109,
    "adress": "5650 Declaration Point",
    "latitude": 4.72265,
    "longitude": -74.02554,
    "description": "música en vivo y mercados artesanales."
  },
  {
    "id": 75,
    "name": "Treutel-Harber",
    "categories": {
      "15": [
        4
      ]
    },
    "price": 9448966,
    "adress": "20 Stone Corner Junction",
    "latitude": 4.47434,
    "longitude": -74.10592,
    "description": "seguido de un debate con los realizadores sobre sus motivaciones e investigaciones."
  },
  {
    "id": 76,
    "name": "Turcotte, Cronin and Hagenes",
    "categories": {
      "3": [
        0
      ],
      "4": [
        2,
        1
      ]
    },
    "price": 6306101,
    "adress": "969 Farmco Junction",
    "latitude": 4.4925,
    "longitude": -74.19584,
    "description": "Únete a miles de corredores en un maratón por la ciudad"
  },
  {
    "id": 77,
    "name": "Morissette-McCullough",
    "categories": {
      "1": [
        0
      ],
      "17": [
        0,
        3
      ],
      "18": [
        2,
        1
      ]
    },
    "price": 8544768,
    "adress": "39 Di Loreto Court",
    "latitude": 4.59936,
    "longitude": -74.2197,
    "description": "desde gadgets hasta robots"
  },
  {
    "id": 78,
    "name": "Price Inc",
    "categories": {
      "3": [
        0,
        1
      ],
      "10": [
        1,
        3
      ]
    },
    "price": 7337353,
    "adress": "5161 School Pass",
    "latitude": 4.74504,
    "longitude": -74.01808,
    "description": "Explora las mejores películas de cine independiente"
  },
  {
    "id": 79,
    "name": "Rowe, Reichert and Johnston",
    "categories": {
      "2": [
        2
      ],
      "18": [
        2,
        3
      ]
    },
    "price": 4008119,
    "adress": "9313 Fisk Plaza",
    "latitude": 4.79835,
    "longitude": -74.22353,
    "description": "seguido de un debate con los realizadores sobre sus motivaciones e investigaciones."
  },
  {
    "id": 80,
    "name": "Crona-Zieme",
    "categories": {
      "10": [
        0,
        1
      ],
      "20": [
        1
      ]
    },
    "price": 573074,
    "adress": "03 Hayes Street",
    "latitude": 4.74822,
    "longitude": -74.13206,
    "description": "música en vivo y premios para los mejores disfraces de la noche."
  },
  {
    "id": 81,
    "name": "Frami, Price and Fisher",
    "categories": {
      "19": [
        0
      ]
    },
    "price": 4244821,
    "adress": "6739 South Lane",
    "latitude": 4.5889,
    "longitude": -74.01062,
    "description": "Aprende a crear tus propias piezas de cerámica en un taller práctico"
  },
  {
    "id": 82,
    "name": "Witting-Roberts",
    "categories": {
      "10": [
        0,
        1
      ],
      "15": [
        3,
        0
      ],
      "20": [
        2
      ]
    },
    "price": 9283591,
    "adress": "0290 Johnson Junction",
    "latitude": 4.55815,
    "longitude": -74.03072,
    "description": "subastas y cenas exquisitas para apoyar una causa social importante."
  },
  {
    "id": 83,
    "name": "Beatty LLC",
    "categories": {
      "9": [
        0,
        1
      ],
      "17": [
        3,
        1
      ]
    },
    "price": 5564051,
    "adress": "6174 Prentice Point",
    "latitude": 4.4866,
    "longitude": -74.12851,
    "description": "Compite en un torneo de videojuegos con los mejores jugadores de la ciudad"
  },
  {
    "id": 84,
    "name": "Daugherty-Hammes",
    "categories": {
      "1": [
        1
      ],
      "5": [
        0,
        2
      ],
      "12": [
        0,
        4
      ]
    },
    "price": 6151786,
    "adress": "680 Village Lane",
    "latitude": 4.57497,
    "longitude": -74.09136,
    "description": "subastas y cenas exquisitas para apoyar una causa social importante."
  },
  {
    "id": 85,
    "name": "Gutmann-Batz",
    "categories": {
      "14": [
        3
      ]
    },
    "price": 6694513,
    "adress": "81 Cherokee Alley",
    "latitude": 4.6381,
    "longitude": -74.15521,
    "description": "baile y fuegos artificiales que te harán despedir el año en grande."
  },
  {
    "id": 86,
    "name": "Shields, Cormier and Price",
    "categories": {
      "11": [
        4
      ],
      "19": [
        3,
        2
      ]
    },
    "price": 9082145,
    "adress": "9850 Kenwood Terrace",
    "latitude": 4.55218,
    "longitude": -74.13179,
    "description": "explorando desde el diseño gráfico hasta la programación básica."
  },
  {
    "id": 87,
    "name": "Parisian LLC",
    "categories": {
      "14": [
        2,
        3
      ]
    },
    "price": 6914370,
    "adress": "807 Fordem Way",
    "latitude": 4.7405,
    "longitude": -74.04372,
    "description": "Participa en una conferencia sobre sostenibilidad donde líderes de la industria compartirán ideas y estrategias para un futuro más ecológico y responsable."
  },
  {
    "id": 88,
    "name": "Abernathy-Pagac",
    "categories": {
      "7": [
        4
      ],
      "17": [
        4
      ],
      "19": [
        3
      ]
    },
    "price": 3704444,
    "adress": "47 Lukken Park",
    "latitude": 4.7642,
    "longitude": -74.13286,
    "description": "Vive una noche mágica en una fiesta de fin de año con música"
  },
  {
    "id": 89,
    "name": "Smitham-McClure",
    "categories": {
      "18": [
        4
      ]
    },
    "price": 9738538,
    "adress": "8 Forest Dale Road",
    "latitude": 4.81897,
    "longitude": -74.06985,
    "description": "Asiste a una clase de fitness grupal en el parque donde un entrenador te guiará a través de ejercicios para mejorar tu fuerza y resistencia."
  },
  {
    "id": 90,
    "name": "Nikolaus, Towne and West",
    "categories": {
      "19": [
        0
      ]
    },
    "price": 8683699,
    "adress": "56 Gerald Street",
    "latitude": 4.77356,
    "longitude": -73.99427,
    "description": "Participa en una obra de teatro musical con actuaciones vibrantes"
  },
  {
    "id": 91,
    "name": "Veum, Daugherty and Effertz",
    "categories": {
      "8": [
        0,
        1
      ],
      "11": [
        1
      ],
      "14": [
        3
      ]
    },
    "price": 2739322,
    "adress": "694 Bonner Pass",
    "latitude": 4.60536,
    "longitude": -74.04618,
    "description": "desde gadgets hasta robots"
  },
  {
    "id": 92,
    "name": "Huel, Blick and Hills",
    "categories": {
      "17": [
        3
      ]
    },
    "price": 907735,
    "adress": "264 Pawling Junction",
    "latitude": 4.57075,
    "longitude": -74.10334,
    "description": "explorando temas sociales y culturales a través de obras innovadoras."
  },
  {
    "id": 93,
    "name": "Kuhic, Baumbach and Rempel",
    "categories": {
      "17": [
        2
      ]
    },
    "price": 2016355,
    "adress": "0 Anzinger Court",
    "latitude": 4.79474,
    "longitude": -74.0992,
    "description": "Asiste a un congreso de negocios donde líderes de la industria compartirán estrategias clave para enfrentar los desafíos del mercado global."
  },
  {
    "id": 94,
    "name": "Becker LLC",
    "categories": {
      "2": [
        0,
        1
      ],
      "7": [
        1,
        3
      ],
      "17": [
        1,
        3
      ]
    },
    "price": 4288624,
    "adress": "506 Basil Lane",
    "latitude": 4.57436,
    "longitude": -74.13477,
    "description": "Compite en un torneo de videojuegos con los mejores jugadores de la ciudad"
  },
  {
    "id": 95,
    "name": "Crooks, Ankunding and Green",
    "categories": {
      "14": [
        2
      ],
      "17": [
        4,
        3
      ]
    },
    "price": 1976566,
    "adress": "5 Ruskin Junction",
    "latitude": 4.48891,
    "longitude": -73.99768,
    "description": "Comparte una noche de teatro experimental donde las emociones se transmiten a través de actuaciones impactantes y minimalistas."
  },
  {
    "id": 96,
    "name": "McDermott, O'Kon and Pouros",
    "categories": {
      "4": [
        3
      ],
      "19": [
        4
      ]
    },
    "price": 3372735,
    "adress": "5265 Mendota Road",
    "latitude": 4.76921,
    "longitude": -74.05827,
    "description": "Conoce las últimas innovaciones en tecnología"
  },
  {
    "id": 97,
    "name": "Bruen and Sons",
    "categories": {
      "14": [
        0
      ],
      "19": [
        0,
        3
      ]
    },
    "price": 6461038,
    "adress": "20 Dovetail Lane",
    "latitude": 4.74513,
    "longitude": -74.06364,
    "description": "Descubre los secretos de la cocina internacional en un taller interactivo donde aprenderás a preparar platillos exquisitos bajo la guía de un chef experto."
  },
  {
    "id": 98,
    "name": "Padberg, Jones and Bernier",
    "categories": {
      "11": [
        0
      ]
    },
    "price": 4087405,
    "adress": "1691 Golf Course Point",
    "latitude": 4.50486,
    "longitude": -74.11397,
    "description": "Vive la experiencia de una gala de caridad con música en vivo"
  },
  {
    "id": 99,
    "name": "Bernier, Kemmer and Orn",
    "categories": {
      "7": [
        0
      ]
    },
    "price": 2056780,
    "adress": "845 Larry Circle",
    "latitude": 4.64342,
    "longitude": -74.17953,
    "description": "baile y fuegos artificiales que te harán despedir el año en grande."
  },
  {
    "id": 100,
    "name": "Huel-Beatty",
    "categories": {
      "17": [
        0
      ],
      "18": [
        2
      ]
    },
    "price": 622363,
    "adress": "44866 Pond Avenue",
    "latitude": 4.65774,
    "longitude": -74.21865,
    "description": "Únete a miles de corredores en un maratón por la ciudad"
  },
  {
    "id": 101,
    "name": "Grant-Turner",
    "categories": {
      "1": [
        2
      ],
      "15": [
        0,
        2
      ],
      "17": [
        2,
        1
      ]
    },
    "price": 8320634,
    "adress": "1 Forest Dale Circle",
    "latitude": 4.71784,
    "longitude": -73.99166,
    "description": "Aprende a desarrollar tu videojuego en un taller para principiantes"
  },
  {
    "id": 102,
    "name": "Schiller Inc",
    "categories": {
      "5": [
        3
      ],
      "18": [
        1,
        2
      ],
      "19": [
        0
      ]
    },
    "price": 9781858,
    "adress": "8 Glendale Avenue",
    "latitude": 4.64642,
    "longitude": -74.09076,
    "description": "Únete a miles de corredores en un maratón por la ciudad"
  },
  {
    "id": 103,
    "name": "Robel and Sons",
    "categories": {
      "9": [
        0,
        1
      ]
    },
    "price": 9237695,
    "adress": "4 Rusk Park",
    "latitude": 4.79493,
    "longitude": -74.23399,
    "description": "comida deliciosa y actividades recreativas para toda la familia en un ambiente festivo."
  },
  {
    "id": 104,
    "name": "Kuhn, Kassulke and Schuppe",
    "categories": {
      "2": [
        3
      ],
      "13": [
        1
      ]
    },
    "price": 9732910,
    "adress": "61622 Nelson Park",
    "latitude": 4.65966,
    "longitude": -74.1565,
    "description": "Aprende a crear tus propias piezas de cerámica en un taller práctico"
  },
  {
    "id": 105,
    "name": "Abernathy-Stanton",
    "categories": {
      "1": [
        0,
        1
      ],
      "10": [
        2
      ],
      "11": [
        3
      ]
    },
    "price": 4598143,
    "adress": "8874 Truax Center",
    "latitude": 4.5373,
    "longitude": -74.09995,
    "description": "Vive la experiencia de una gala de caridad con música en vivo"
  },
  {
    "id": 106,
    "name": "Wintheiser-Pacocha",
    "categories": {
      "7": [
        3
      ]
    },
    "price": 3694508,
    "adress": "272 Karstens Road",
    "latitude": 4.49329,
    "longitude": -74.15116,
    "description": "Descubre el mundo del cine animado en un festival que reúne a los mejores cortometrajes y largometrajes de animación de todo el mundo."
  },
  {
    "id": 107,
    "name": "Schmitt-Strosin",
    "categories": {
      "5": [
        2
      ],
      "16": [
        2,
        1
      ],
      "19": [
        2
      ]
    },
    "price": 2877435,
    "adress": "257 Starling Alley",
    "latitude": 4.73804,
    "longitude": -74.21622,
    "description": "Explora las mejores películas de cine independiente"
  },
  {
    "id": 108,
    "name": "Kris-Grady",
    "categories": {
      "6": [
        2
      ]
    },
    "price": 1717492,
    "adress": "77 Sage Alley",
    "latitude": 4.53874,
    "longitude": -74.14593,
    "description": "Descubre los secretos de la cocina internacional en un taller interactivo donde aprenderás a preparar platillos exquisitos bajo la guía de un chef experto."
  },
  {
    "id": 109,
    "name": "Cartwright, Moen and Miller",
    "categories": {
      "4": [
        3,
        2
      ],
      "11": [
        0,
        4
      ]
    },
    "price": 9342771,
    "adress": "703 Moulton Drive",
    "latitude": 4.55171,
    "longitude": -74.04816,
    "description": "Participa en una conferencia sobre sostenibilidad donde líderes de la industria compartirán ideas y estrategias para un futuro más ecológico y responsable."
  },
  {
    "id": 110,
    "name": "Towne-Morar",
    "categories": {
      "19": [
        0,
        1
      ],
      "20": [
        0,
        4
      ]
    },
    "price": 8612074,
    "adress": "442 Monterey Junction",
    "latitude": 4.6724,
    "longitude": -74.06187,
    "description": "subastas y cenas exquisitas para apoyar una causa social importante."
  },
  {
    "id": 111,
    "name": "Kuhn, Ankunding and Murphy",
    "categories": {
      "15": [
        1,
        4
      ]
    },
    "price": 7249978,
    "adress": "8 Mesta Way",
    "latitude": 4.76397,
    "longitude": -74.22514,
    "description": "Participa en una obra de teatro musical con actuaciones vibrantes"
  },
  {
    "id": 112,
    "name": "Schultz and Sons",
    "categories": {
      "9": [
        3
      ]
    },
    "price": 4842145,
    "adress": "91751 Jana Lane",
    "latitude": 4.54608,
    "longitude": -74.1265,
    "description": "Asiste a un congreso de negocios donde líderes de la industria compartirán estrategias clave para enfrentar los desafíos del mercado global."
  },
  {
    "id": 113,
    "name": "Davis and Sons",
    "categories": {
      "8": [
        0
      ],
      "10": [
        4,
        1
      ],
      "19": [
        4
      ]
    },
    "price": 8588736,
    "adress": "0 Waxwing Terrace",
    "latitude": 4.63818,
    "longitude": -74.09399,
    "description": "para relajarte y mejorar tu bienestar físico y mental en un entorno pacífico."
  },
  {
    "id": 114,
    "name": "Weissnat-Murphy",
    "categories": {
      "15": [
        2
      ]
    },
    "price": 5536202,
    "adress": "34 Westridge Parkway",
    "latitude": 4.68229,
    "longitude": -74.10583,
    "description": "Disfruta de una noche de jazz en vivo con una banda que interpretará los mejores clásicos y nuevas composiciones en un ambiente relajado."
  },
  {
    "id": 115,
    "name": "Littel, Watsica and Heidenreich",
    "categories": {
      "11": [
        2,
        3
      ],
      "12": [
        3,
        2
      ],
      "18": [
        1,
        2
      ]
    },
    "price": 7046776,
    "adress": "1669 Londonderry Point",
    "latitude": 4.5929,
    "longitude": -74.22119,
    "description": "Sumérgete en un festival cultural que celebra las tradiciones locales con danzas folclóricas"
  },
  {
    "id": 116,
    "name": "Hoeger, Metz and Johns",
    "categories": {
      "4": [
        1,
        2
      ],
      "9": [
        0,
        3
      ]
    },
    "price": 4088058,
    "adress": "1 Westridge Circle",
    "latitude": 4.81739,
    "longitude": -74.08024,
    "description": "Disfruta de los mejores DJs internacionales en una noche llena de luces"
  },
  {
    "id": 117,
    "name": "Koch, Schmidt and O'Connell",
    "categories": {
      "7": [
        1,
        0
      ],
      "17": [
        2,
        1
      ]
    },
    "price": 1595535,
    "adress": "266 Green Ridge Lane",
    "latitude": 4.78199,
    "longitude": -74.21686,
    "description": "Recorre una galería con piezas de arte contemporáneo creadas por artistas locales"
  },
  {
    "id": 118,
    "name": "D'Amore-O'Conner",
    "categories": {
      "20": [
        2,
        3
      ]
    },
    "price": 7256693,
    "adress": "4 Laurel Street",
    "latitude": 4.54176,
    "longitude": -74.05668,
    "description": "Descubre los secretos de la cocina internacional en un taller interactivo donde aprenderás a preparar platillos exquisitos bajo la guía de un chef experto."
  },
  {
    "id": 119,
    "name": "Grimes, Huel and Champlin",
    "categories": {
      "13": [
        1,
        0
      ],
      "14": [
        1,
        3
      ]
    },
    "price": 8727673,
    "adress": "13512 Loomis Road",
    "latitude": 4.7922,
    "longitude": -74.23909,
    "description": "ritmos electrónicos y una atmósfera vibrante que no te dejará parar de bailar."
  },
  {
    "id": 120,
    "name": "Morissette LLC",
    "categories": {
      "9": [
        1
      ]
    },
    "price": 7480174,
    "adress": "1057 Spenser Point",
    "latitude": 4.72663,
    "longitude": -74.16872,
    "description": "mientras ayudas a recaudar fondos para causas caritativas."
  },
  {
    "id": 121,
    "name": "Ratke-Kuhn",
    "categories": {
      "6": [
        3,
        2
      ],
      "8": [
        0
      ]
    },
    "price": 3856884,
    "adress": "00 Spaight Drive",
    "latitude": 4.49163,
    "longitude": -74.15906,
    "description": "Conoce las últimas innovaciones en tecnología"
  },
  {
    "id": 122,
    "name": "McCullough, Cassin and Parisian",
    "categories": {
      "3": [
        1,
        3
      ],
      "9": [
        4
      ],
      "15": [
        4
      ]
    },
    "price": 6484465,
    "adress": "6796 Artisan Point",
    "latitude": 4.73486,
    "longitude": -74.20904,
    "description": "Vive la adrenalina de un torneo de baloncesto donde los equipos locales compiten por el título de campeones en un ambiente lleno de energía."
  },
  {
    "id": 123,
    "name": "Bernhard, Schmeler and Mante",
    "categories": {
      "1": [
        3
      ],
      "14": [
        0,
        1
      ],
      "18": [
        2
      ]
    },
    "price": 7660540,
    "adress": "4448 Esch Avenue",
    "latitude": 4.51246,
    "longitude": -74.22351,
    "description": "Disfruta de una noche de jazz en vivo con una banda que interpretará los mejores clásicos y nuevas composiciones en un ambiente relajado."
  },
  {
    "id": 124,
    "name": "Torp Group",
    "categories": {
      "1": [
        4,
        3
      ]
    },
    "price": 9968873,
    "adress": "45198 Gateway Park",
    "latitude": 4.64845,
    "longitude": -74.15681,
    "description": "Sumérgete en un festival cultural que celebra las tradiciones locales con danzas folclóricas"
  },
  {
    "id": 125,
    "name": "White, Gleichner and Mayert",
    "categories": {
      "4": [
        1
      ],
      "14": [
        0,
        1
      ],
      "20": [
        3
      ]
    },
    "price": 8873847,
    "adress": "6197 Green Ridge Street",
    "latitude": 4.66722,
    "longitude": -74.01795,
    "description": "música en vivo y premios para los mejores disfraces de la noche."
  },
  {
    "id": 126,
    "name": "Muller-Sanford",
    "categories": {
      "14": [
        3,
        4
      ]
    },
    "price": 5045494,
    "adress": "2208 Carioca Junction",
    "latitude": 4.49167,
    "longitude": -74.11864,
    "description": "Disfruta de una degustación de vinos con expertos sommeliers que te guiarán a través de los sabores y aromas más exquisitos del mundo vinícola."
  },
  {
    "id": 127,
    "name": "McKenzie and Sons",
    "categories": {
      "20": [
        4,
        3
      ]
    },
    "price": 5860555,
    "adress": "197 Charing Cross Park",
    "latitude": 4.5716,
    "longitude": -74.16586,
    "description": "Disfruta de una tarde de juegos de mesa donde podrás competir con amigos o familiares en una amplia variedad de juegos estratégicos y divertidos."
  },
  {
    "id": 128,
    "name": "Marks, Lehner and Thompson",
    "categories": {
      "1": [
        3
      ],
      "7": [
        2,
        1
      ],
      "19": [
        1,
        0
      ]
    },
    "price": 9752180,
    "adress": "547 Merry Street",
    "latitude": 4.6247,
    "longitude": -74.01645,
    "description": "donde descubrirás técnicas de moldeado y esmaltado para desarrollar tu creatividad."
  },
  {
    "id": 129,
    "name": "Kris, DuBuque and Corwin",
    "categories": {
      "8": [
        4,
        3
      ]
    },
    "price": 9691938,
    "adress": "71496 Graceland Way",
    "latitude": 4.59405,
    "longitude": -74.09858,
    "description": "Degusta platos de distintas culturas en un festival gastronómico que reúne a los mejores chefs del mundo en un solo lugar para celebrar la diversidad culinaria."
  },
  {
    "id": 130,
    "name": "Ondricka Group",
    "categories": {
      "6": [
        0,
        3
      ],
      "9": [
        3
      ]
    },
    "price": 7793025,
    "adress": "499 Northport Junction",
    "latitude": 4.64712,
    "longitude": -74.1455,
    "description": "Vive la emoción de una fiesta de música en vivo con bandas locales que tocan los mejores éxitos y canciones originales."
  },
  {
    "id": 131,
    "name": "Armstrong Group",
    "categories": {
      "8": [
        0,
        1
      ],
      "9": [
        0,
        1
      ]
    },
    "price": 4983425,
    "adress": "59433 Stephen Circle",
    "latitude": 4.78726,
    "longitude": -74.15344,
    "description": "cantos en vivo y coreografías que te harán disfrutar de una noche inolvidable."
  },
  {
    "id": 132,
    "name": "Blick-Thiel",
    "categories": {
      "4": [
        1,
        3
      ]
    },
    "price": 5536317,
    "adress": "751 Laurel Alley",
    "latitude": 4.56822,
    "longitude": -74.08562,
    "description": "subastas y cenas exquisitas para apoyar una causa social importante."
  },
  {
    "id": 133,
    "name": "Reichert-Muller",
    "categories": {
      "12": [
        4
      ]
    },
    "price": 9766483,
    "adress": "1666 Pierstorff Alley",
    "latitude": 4.60324,
    "longitude": -74.17004,
    "description": "mostrando cómo la IA está transformando diversas industrias y mejorando la productividad."
  },
  {
    "id": 134,
    "name": "Crist, Bogan and Abshire",
    "categories": {
      "6": [
        4,
        1
      ],
      "20": [
        0
      ]
    },
    "price": 5757825,
    "adress": "60519 Lakewood Terrace",
    "latitude": 4.64669,
    "longitude": -74.19355,
    "description": "Expertos en inteligencia artificial presentarán los últimos avances en tecnología"
  },
  {
    "id": 135,
    "name": "Ortiz Group",
    "categories": {
      "3": [
        4,
        0
      ],
      "10": [
        0
      ]
    },
    "price": 6522792,
    "adress": "9 Mayer Hill",
    "latitude": 4.67206,
    "longitude": -74.0528,
    "description": "Asiste a una exposición de arte callejero donde grafiteros de renombre presentan sus murales más recientes en un espacio público"
  },
  {
    "id": 136,
    "name": "McDermott Group",
    "categories": {
      "5": [
        0
      ],
      "6": [
        3,
        1
      ]
    },
    "price": 5882317,
    "adress": "6940 Golf View Crossing",
    "latitude": 4.74251,
    "longitude": -74.21794,
    "description": "Comparte una noche de teatro experimental donde las emociones se transmiten a través de actuaciones impactantes y minimalistas."
  },
  {
    "id": 137,
    "name": "Welch Group",
    "categories": {
      "10": [
        1,
        4
      ],
      "13": [
        1,
        3
      ]
    },
    "price": 7700704,
    "adress": "0 Farwell Trail",
    "latitude": 4.48499,
    "longitude": -74.19247,
    "description": "Recorre una galería con piezas de arte contemporáneo creadas por artistas locales"
  },
  {
    "id": 138,
    "name": "Boyle-Volkman",
    "categories": {
      "4": [
        4,
        3
      ],
      "10": [
        3
      ]
    },
    "price": 1660439,
    "adress": "66 Morrow Street",
    "latitude": 4.76464,
    "longitude": -74.03413,
    "description": "Aprende sobre las tendencias actuales de moda sostenible en una feria donde diseñadores y marcas presentan sus colecciones más ecológicas y responsables."
  },
  {
    "id": 139,
    "name": "Hackett, Macejkovic and Fadel",
    "categories": {
      "20": [
        0,
        1
      ]
    },
    "price": 6911924,
    "adress": "1597 Lukken Lane",
    "latitude": 4.71881,
    "longitude": -74.13276,
    "description": "explorando temas sociales y culturales a través de obras innovadoras."
  },
  {
    "id": 140,
    "name": "Adams Group",
    "categories": {
      "13": [
        0
      ]
    },
    "price": 2130681,
    "adress": "780 Shoshone Drive",
    "latitude": 4.49832,
    "longitude": -74.2149,
    "description": "Explora una feria artesanal donde podrás comprar piezas únicas y hechas a mano por artistas locales que celebran las tradiciones culturales."
  },
  {
    "id": 141,
    "name": "Gibson LLC",
    "categories": {
      "4": [
        0
      ],
      "6": [
        0,
        1
      ],
      "14": [
        0
      ]
    },
    "price": 2876297,
    "adress": "61613 Warner Crossing",
    "latitude": 4.59554,
    "longitude": -74.09116,
    "description": "Participa en una feria de empleo donde empresas internacionales están buscando nuevos talentos y podrás postularte a diversas oportunidades laborales."
  },
  {
    "id": 142,
    "name": "Volkman, Kihn and Nader",
    "categories": {
      "16": [
        1,
        3
      ]
    },
    "price": 3147466,
    "adress": "91243 Sommers Park",
    "latitude": 4.57098,
    "longitude": -74.1923,
    "description": "Únete a una reunión familiar al aire libre con actividades para niños"
  },
  {
    "id": 143,
    "name": "Feeney, Emard and Gibson",
    "categories": {
      "17": [
        4,
        3
      ]
    },
    "price": 9508205,
    "adress": "098 Artisan Court",
    "latitude": 4.52085,
    "longitude": -74.02999,
    "description": "donde descubrirás técnicas de moldeado y esmaltado para desarrollar tu creatividad."
  },
  {
    "id": 144,
    "name": "Brekke-Ebert",
    "categories": {
      "1": [
        0
      ],
      "9": [
        3
      ],
      "18": [
        3,
        0
      ]
    },
    "price": 1162939,
    "adress": "6661 Iowa Court",
    "latitude": 4.64584,
    "longitude": -74.07955,
    "description": "Descubre los secretos de la cocina internacional en un taller interactivo donde aprenderás a preparar platillos exquisitos bajo la guía de un chef experto."
  },
  {
    "id": 145,
    "name": "Fay, Mills and Schaden",
    "categories": {
      "6": [
        3,
        2
      ],
      "18": [
        4
      ]
    },
    "price": 9750498,
    "adress": "902 Lien Point",
    "latitude": 4.77637,
    "longitude": -74.16601,
    "description": "Expertos en inteligencia artificial presentarán los últimos avances en tecnología"
  },
  {
    "id": 146,
    "name": "Pollich-Welch",
    "categories": {
      "2": [
        0,
        1
      ]
    },
    "price": 1330534,
    "adress": "6 Sage Center",
    "latitude": 4.61155,
    "longitude": -74.00676,
    "description": "Participa en un torneo de fútbol donde equipos locales compiten por el trofeo de campeón en un ambiente lleno de emoción y trabajo en equipo."
  },
  {
    "id": 147,
    "name": "Jenkins-Reilly",
    "categories": {
      "1": [
        4
      ]
    },
    "price": 2609382,
    "adress": "21709 Weeping Birch Plaza",
    "latitude": 4.56607,
    "longitude": -74.02214,
    "description": "Asiste a una clase de fitness grupal en el parque donde un entrenador te guiará a través de ejercicios para mejorar tu fuerza y resistencia."
  },
  {
    "id": 148,
    "name": "Carroll-Cole",
    "categories": {
      "3": [
        2
      ],
      "13": [
        0,
        1
      ]
    },
    "price": 3805183,
    "adress": "1 Grover Alley",
    "latitude": 4.56297,
    "longitude": -74.12099,
    "description": "promoviendo la salud"
  },
  {
    "id": 149,
    "name": "Stark-Hegmann",
    "categories": {
      "7": [
        2,
        1
      ],
      "17": [
        0,
        3
      ]
    },
    "price": 685159,
    "adress": "76800 Becker Lane",
    "latitude": 4.74534,
    "longitude": -74.07784,
    "description": "Descubre el mundo del cine animado en un festival que reúne a los mejores cortometrajes y largometrajes de animación de todo el mundo."
  },
  {
    "id": 150,
    "name": "Kohler, Zemlak and Adams",
    "categories": {
      "5": [
        0
      ],
      "10": [
        4
      ],
      "11": [
        3,
        0
      ]
    },
    "price": 6462863,
    "adress": "12 Luster Avenue",
    "latitude": 4.47181,
    "longitude": -74.14984,
    "description": "degustando sus mejores platos y aprendiendo sobre sus ingredientes secretos."
  },
  {
    "id": 151,
    "name": "Buckridge Inc",
    "categories": {
      "15": [
        1
      ]
    },
    "price": 6684455,
    "adress": "977 Cody Parkway",
    "latitude": 4.77972,
    "longitude": -74.02523,
    "description": "Participa en un retiro espiritual en las montañas"
  },
  {
    "id": 152,
    "name": "Muller-Deckow",
    "categories": {
      "10": [
        0,
        2
      ],
      "11": [
        0,
        2
      ],
      "17": [
        0
      ]
    },
    "price": 7531452,
    "adress": "63 Stone Corner Center",
    "latitude": 4.54192,
    "longitude": -74.18777,
    "description": "explorando temas sociales y culturales a través de obras innovadoras."
  },
  {
    "id": 153,
    "name": "Hoeger-Goyette",
    "categories": {
      "1": [
        3
      ],
      "11": [
        4
      ]
    },
    "price": 8262728,
    "adress": "6622 Redwing Court",
    "latitude": 4.78358,
    "longitude": -74.00217,
    "description": "Únete a miles de corredores en un maratón por la ciudad"
  },
  {
    "id": 154,
    "name": "Daugherty, Wunsch and Cassin",
    "categories": {
      "3": [
        4,
        3
      ],
      "15": [
        3,
        0
      ],
      "20": [
        0
      ]
    },
    "price": 5045836,
    "adress": "27799 David Place",
    "latitude": 4.63795,
    "longitude": -74.14825,
    "description": "Aprende a crear tus propias piezas de cerámica en un taller práctico"
  },
  {
    "id": 155,
    "name": "Strosin, Hodkiewicz and Pacocha",
    "categories": {
      "16": [
        4
      ],
      "18": [
        2
      ]
    },
    "price": 9699038,
    "adress": "498 Esker Street",
    "latitude": 4.55949,
    "longitude": -74.079,
    "description": "Disfruta de un festival de cine de terror con maratones de películas que te mantendrán al borde del asiento durante toda la noche."
  },
  {
    "id": 156,
    "name": "Bergstrom Group",
    "categories": {
      "7": [
        4,
        3
      ],
      "20": [
        2,
        1
      ]
    },
    "price": 3949501,
    "adress": "88 Harper Court",
    "latitude": 4.81801,
    "longitude": -74.01769,
    "description": "baile y fuegos artificiales que te harán despedir el año en grande."
  },
  {
    "id": 157,
    "name": "Farrell and Sons",
    "categories": {
      "10": [
        3,
        2
      ],
      "15": [
        3
      ],
      "18": [
        0,
        1
      ]
    },
    "price": 8501838,
    "adress": "1 Milwaukee Street",
    "latitude": 4.76068,
    "longitude": -74.05986,
    "description": "degustando sus mejores platos y aprendiendo sobre sus ingredientes secretos."
  },
  {
    "id": 158,
    "name": "Terry-O'Reilly",
    "categories": {
      "2": [
        0
      ],
      "10": [
        1
      ]
    },
    "price": 243958,
    "adress": "751 Lukken Park",
    "latitude": 4.82541,
    "longitude": -74.01369,
    "description": "Expertos en inteligencia artificial presentarán los últimos avances en tecnología"
  },
  {
    "id": 159,
    "name": "Marks, Kohler and Stoltenberg",
    "categories": {
      "8": [
        4,
        1
      ],
      "9": [
        4,
        2
      ]
    },
    "price": 9741047,
    "adress": "0851 Pleasure Way",
    "latitude": 4.71422,
    "longitude": -74.11286,
    "description": "Ven disfrazado a una fiesta única llena de sorpresas"
  },
  {
    "id": 160,
    "name": "Larkin, Hand and Jenkins",
    "categories": {
      "8": [
        2
      ]
    },
    "price": 2871079,
    "adress": "66007 Bonner Plaza",
    "latitude": 4.48509,
    "longitude": -74.19383,
    "description": "música en vivo y premios para los mejores disfraces de la noche."
  },
  {
    "id": 161,
    "name": "Mueller, Lueilwitz and Green",
    "categories": {
      "8": [
        0
      ]
    },
    "price": 4853697,
    "adress": "397 Monterey Crossing",
    "latitude": 4.63316,
    "longitude": -74.08155,
    "description": "Participa en una feria de empleo donde empresas internacionales están buscando nuevos talentos y podrás postularte a diversas oportunidades laborales."
  },
  {
    "id": 162,
    "name": "Schowalter, Abshire and Kiehn",
    "categories": {
      "19": [
        2
      ]
    },
    "price": 8932278,
    "adress": "3 Dottie Crossing",
    "latitude": 4.79781,
    "longitude": -74.14438,
    "description": "Explora una feria artesanal donde podrás comprar piezas únicas y hechas a mano por artistas locales que celebran las tradiciones culturales."
  },
  {
    "id": 163,
    "name": "Labadie, Cremin and Zieme",
    "categories": {
      "6": [
        0,
        2
      ],
      "10": [
        0,
        3
      ]
    },
    "price": 1098806,
    "adress": "2052 Russell Avenue",
    "latitude": 4.73275,
    "longitude": -74.03599,
    "description": "Únete a miles de corredores en un maratón por la ciudad"
  },
  {
    "id": 164,
    "name": "Armstrong and Sons",
    "categories": {
      "11": [
        3
      ],
      "13": [
        0
      ]
    },
    "price": 2477917,
    "adress": "41407 Bunting Court",
    "latitude": 4.72476,
    "longitude": -74.18926,
    "description": "Recorre una galería con piezas de arte contemporáneo creadas por artistas locales"
  },
  {
    "id": 165,
    "name": "Herman, Hettinger and Fahey",
    "categories": {
      "11": [
        2
      ]
    },
    "price": 9503513,
    "adress": "48 Prairie Rose Road",
    "latitude": 4.52918,
    "longitude": -74.1989,
    "description": "Vive la experiencia de una gala de caridad con música en vivo"
  },
  {
    "id": 166,
    "name": "Pouros and Sons",
    "categories": {
      "4": [
        1,
        0
      ],
      "5": [
        0,
        1
      ],
      "8": [
        4,
        2
      ]
    },
    "price": 7506937,
    "adress": "61994 Quincy Hill",
    "latitude": 4.58952,
    "longitude": -74.20046,
    "description": "Participa en una competencia de deportes extremos que pondrá a prueba tus habilidades físicas y tu resistencia en un ambiente lleno de adrenalina."
  },
  {
    "id": 167,
    "name": "Kunze LLC",
    "categories": {
      "7": [
        2
      ],
      "18": [
        3,
        2
      ]
    },
    "price": 8722143,
    "adress": "63520 Hovde Junction",
    "latitude": 4.47864,
    "longitude": -74.20274,
    "description": "cantos en vivo y coreografías que te harán disfrutar de una noche inolvidable."
  },
  {
    "id": 168,
    "name": "Greenholt Inc",
    "categories": {
      "12": [
        1
      ]
    },
    "price": 9302034,
    "adress": "51805 Jenifer Center",
    "latitude": 4.6536,
    "longitude": -74.09986,
    "description": "Vive una noche mágica en una fiesta de fin de año con música"
  },
  {
    "id": 169,
    "name": "McDermott, Kuhn and Friesen",
    "categories": {
      "17": [
        4
      ]
    },
    "price": 2636402,
    "adress": "5065 Onsgard Terrace",
    "latitude": 4.82255,
    "longitude": -74.14871,
    "description": "Disfruta de una noche de jazz en vivo con una banda que interpretará los mejores clásicos y nuevas composiciones en un ambiente relajado."
  },
  {
    "id": 170,
    "name": "Pfeffer, Padberg and Schimmel",
    "categories": {
      "12": [
        1,
        0
      ]
    },
    "price": 2310606,
    "adress": "55077 5th Road",
    "latitude": 4.69807,
    "longitude": -74.14575,
    "description": "Ayuda a recaudar fondos para causas benéficas en una subasta que incluye obras de arte y experiencias exclusivas para los participantes más generosos."
  },
  {
    "id": 171,
    "name": "Purdy, Kovacek and Davis",
    "categories": {
      "1": [
        0
      ]
    },
    "price": 974413,
    "adress": "6 Forest Dale Terrace",
    "latitude": 4.48851,
    "longitude": -74.04566,
    "description": "Vive una noche mágica en una fiesta de fin de año con música"
  },
  {
    "id": 172,
    "name": "Hansen, Gislason and Zemlak",
    "categories": {
      "3": [
        3,
        2
      ],
      "8": [
        3,
        2
      ],
      "13": [
        3,
        4
      ]
    },
    "price": 6452812,
    "adress": "50 Rigney Alley",
    "latitude": 4.6217,
    "longitude": -74.20481,
    "description": "Compite en un torneo de videojuegos con los mejores jugadores de la ciudad"
  },
  {
    "id": 173,
    "name": "Murphy, Wolf and Barrows",
    "categories": {
      "2": [
        1
      ],
      "8": [
        0,
        1
      ]
    },
    "price": 9172791,
    "adress": "8 Hayes Drive",
    "latitude": 4.64673,
    "longitude": -74.02586,
    "description": "Descubre los secretos de la cocina internacional en un taller interactivo donde aprenderás a preparar platillos exquisitos bajo la guía de un chef experto."
  },
  {
    "id": 174,
    "name": "Ritchie-Metz",
    "categories": {
      "6": [
        1
      ]
    },
    "price": 5289743,
    "adress": "7 Division Park",
    "latitude": 4.54176,
    "longitude": -74.11119,
    "description": "Aprende sobre las tendencias actuales de moda sostenible en una feria donde diseñadores y marcas presentan sus colecciones más ecológicas y responsables."
  },
  {
    "id": 175,
    "name": "Bayer-Witting",
    "categories": {
      "3": [
        4,
        3
      ],
      "12": [
        4
      ],
      "20": [
        3
      ]
    },
    "price": 2187481,
    "adress": "0 South Crossing",
    "latitude": 4.53432,
    "longitude": -74.23343,
    "description": "desde gadgets hasta robots"
  },
  {
    "id": 176,
    "name": "Bogisich-Harber",
    "categories": {
      "4": [
        2
      ],
      "6": [
        0,
        1
      ]
    },
    "price": 9936667,
    "adress": "5140 Starling Alley",
    "latitude": 4.59952,
    "longitude": -74.04831,
    "description": "Descubre el mundo del cine animado en un festival que reúne a los mejores cortometrajes y largometrajes de animación de todo el mundo."
  },
  {
    "id": 177,
    "name": "DuBuque Group",
    "categories": {
      "9": [
        0
      ]
    },
    "price": 7605954,
    "adress": "520 Fairview Parkway",
    "latitude": 4.7464,
    "longitude": -74.08447,
    "description": "comida deliciosa y actividades recreativas para toda la familia en un ambiente festivo."
  },
  {
    "id": 178,
    "name": "Stehr-Dooley",
    "categories": {
      "3": [
        4,
        3
      ],
      "7": [
        3
      ],
      "15": [
        3
      ]
    },
    "price": 2787191,
    "adress": "85449 Morrow Terrace",
    "latitude": 4.78385,
    "longitude": -74.20131,
    "description": "Participa en un torneo de fútbol donde equipos locales compiten por el trofeo de campeón en un ambiente lleno de emoción y trabajo en equipo."
  },
  {
    "id": 179,
    "name": "Kertzmann Inc",
    "categories": {
      "6": [
        3
      ],
      "9": [
        4
      ],
      "19": [
        2
      ]
    },
    "price": 4160579,
    "adress": "92 Eagan Alley",
    "latitude": 4.81932,
    "longitude": -74.18698,
    "description": "Únete a una clase de yoga al aire libre"
  },
  {
    "id": 180,
    "name": "Ledner, Wisozk and Lehner",
    "categories": {
      "6": [
        2
      ],
      "9": [
        0,
        3
      ]
    },
    "price": 6638852,
    "adress": "03 Myrtle Drive",
    "latitude": 4.80136,
    "longitude": -74.12636,
    "description": "Asiste a la proyección de documentales sobre temas ambientales y sociales"
  },
  {
    "id": 181,
    "name": "Luettgen-Kuhlman",
    "categories": {
      "1": [
        0,
        3
      ],
      "20": [
        0,
        4
      ]
    },
    "price": 6939728,
    "adress": "68273 Vermont Crossing",
    "latitude": 4.47605,
    "longitude": -74.02169,
    "description": "con proyecciones especiales de cineastas emergentes que abordan temas únicos y provocadores."
  },
  {
    "id": 182,
    "name": "Lebsack, Hirthe and Lang",
    "categories": {
      "8": [
        4,
        1
      ],
      "12": [
        3
      ],
      "15": [
        0,
        3
      ]
    },
    "price": 5801881,
    "adress": "3 Briar Crest Junction",
    "latitude": 4.60174,
    "longitude": -74.08551,
    "description": "Disfruta de una ruta gastronómica por los restaurantes más reconocidos"
  },
  {
    "id": 183,
    "name": "Hills LLC",
    "categories": {
      "11": [
        4,
        3
      ],
      "13": [
        2,
        3
      ],
      "16": [
        1,
        0
      ]
    },
    "price": 4970849,
    "adress": "9 Sugar Junction",
    "latitude": 4.80826,
    "longitude": -74.05092,
    "description": "seguido de un debate con los realizadores sobre sus motivaciones e investigaciones."
  },
  {
    "id": 184,
    "name": "Schoen-Hilpert",
    "categories": {
      "18": [
        1
      ]
    },
    "price": 5224902,
    "adress": "8 Oneill Parkway",
    "latitude": 4.57095,
    "longitude": -74.13657,
    "description": "Compite en un torneo de videojuegos con los mejores jugadores de la ciudad"
  },
  {
    "id": 185,
    "name": "Little-Smith",
    "categories": {
      "5": [
        0
      ],
      "6": [
        2,
        1
      ],
      "17": [
        2
      ]
    },
    "price": 9562268,
    "adress": "2435 Montana Junction",
    "latitude": 4.66452,
    "longitude": -74.20732,
    "description": "rodeado de naturaleza"
  },
  {
    "id": 186,
    "name": "Ledner and Sons",
    "categories": {
      "5": [
        1
      ],
      "9": [
        2
      ]
    },
    "price": 6022363,
    "adress": "359 Caliangt Crossing",
    "latitude": 4.51596,
    "longitude": -74.21894,
    "description": "Disfruta de un festival de cine de terror con maratones de películas que te mantendrán al borde del asiento durante toda la noche."
  },
  {
    "id": 187,
    "name": "Leuschke-Dooley",
    "categories": {
      "2": [
        3,
        1
      ],
      "6": [
        3,
        2
      ]
    },
    "price": 8253861,
    "adress": "1525 Golf Course Plaza",
    "latitude": 4.80102,
    "longitude": -74.23108,
    "description": "Asiste a un congreso de negocios donde líderes de la industria compartirán estrategias clave para enfrentar los desafíos del mercado global."
  },
  {
    "id": 188,
    "name": "Brakus-Hauck",
    "categories": {
      "7": [
        2
      ]
    },
    "price": 6242036,
    "adress": "127 Kennedy Crossing",
    "latitude": 4.71843,
    "longitude": -74.00411,
    "description": "Vive una noche mágica en una fiesta de fin de año con música"
  },
  {
    "id": 189,
    "name": "Heaney, Dare and Von",
    "categories": {
      "14": [
        0
      ]
    },
    "price": 8476562,
    "adress": "16801 Oak Crossing",
    "latitude": 4.49149,
    "longitude": -74.10208,
    "description": "Participa en una caminata solidaria que recorre los paisajes más hermosos de la ciudad"
  },
  {
    "id": 190,
    "name": "Ullrich and Sons",
    "categories": {
      "11": [
        1
      ]
    },
    "price": 1845727,
    "adress": "2 Doe Crossing Place",
    "latitude": 4.69198,
    "longitude": -74.01966,
    "description": "seguido de un debate con los realizadores sobre sus motivaciones e investigaciones."
  },
  {
    "id": 191,
    "name": "Prohaska Group",
    "categories": {
      "7": [
        0
      ],
      "9": [
        4
      ],
      "11": [
        2
      ]
    },
    "price": 7792043,
    "adress": "382 Oak Pass",
    "latitude": 4.62073,
    "longitude": -74.02252,
    "description": "Comparte una noche de teatro experimental donde las emociones se transmiten a través de actuaciones impactantes y minimalistas."
  },
  {
    "id": 192,
    "name": "Bahringer-Reilly",
    "categories": {
      "17": [
        0
      ],
      "19": [
        0
      ]
    },
    "price": 3021286,
    "adress": "8634 Sunbrook Way",
    "latitude": 4.62254,
    "longitude": -74.0697,
    "description": "Participa en un retiro espiritual en las montañas"
  },
  {
    "id": 193,
    "name": "Heidenreich Group",
    "categories": {
      "8": [
        4,
        1
      ],
      "15": [
        2,
        1
      ]
    },
    "price": 2851889,
    "adress": "0 Manitowish Park",
    "latitude": 4.59092,
    "longitude": -74.20616,
    "description": "Descubre los secretos de la cocina internacional en un taller interactivo donde aprenderás a preparar platillos exquisitos bajo la guía de un chef experto."
  },
  {
    "id": 194,
    "name": "Weber, Will and Cruickshank",
    "categories": {
      "11": [
        0,
        3
      ]
    },
    "price": 3129955,
    "adress": "28 Rutledge Circle",
    "latitude": 4.53225,
    "longitude": -74.06449,
    "description": "Únete a una reunión familiar al aire libre con actividades para niños"
  },
  {
    "id": 195,
    "name": "McCullough-Abernathy",
    "categories": {
      "1": [
        4
      ]
    },
    "price": 2854820,
    "adress": "044 Surrey Court",
    "latitude": 4.6671,
    "longitude": -74.00645,
    "description": "Disfruta de los mejores DJs internacionales en una noche llena de luces"
  },
  {
    "id": 196,
    "name": "Mraz, Lueilwitz and Yundt",
    "categories": {
      "2": [
        4,
        3
      ]
    },
    "price": 9133612,
    "adress": "16407 Arapahoe Way",
    "latitude": 4.47899,
    "longitude": -74.15909,
    "description": "Participa en un torneo de fútbol donde equipos locales compiten por el trofeo de campeón en un ambiente lleno de emoción y trabajo en equipo."
  },
  {
    "id": 197,
    "name": "Collier-Casper",
    "categories": {
      "2": [
        4,
        3
      ],
      "13": [
        0
      ]
    },
    "price": 602289,
    "adress": "98 Northport Court",
    "latitude": 4.57171,
    "longitude": -74.23972,
    "description": "Descubre el mundo del cine animado en un festival que reúne a los mejores cortometrajes y largometrajes de animación de todo el mundo."
  },
  {
    "id": 198,
    "name": "Yundt, Beahan and Cremin",
    "categories": {
      "6": [
        4
      ],
      "19": [
        4
      ]
    },
    "price": 8711790,
    "adress": "5 Brentwood Place",
    "latitude": 4.49162,
    "longitude": -74.14167,
    "description": "Asiste a una conferencia de innovación tecnológica donde visionarios presentarán los próximos avances que cambiarán el mundo."
  },
  {
    "id": 199,
    "name": "Donnelly, Witting and Mohr",
    "categories": {
      "7": [
        4,
        3
      ]
    },
    "price": 2222005,
    "adress": "16813 Morrow Trail",
    "latitude": 4.68509,
    "longitude": -74.18719,
    "description": "Recorre una galería con piezas de arte contemporáneo creadas por artistas locales"
  },
  {
    "id": 200,
    "name": "Zboncak, Pagac and Jacobi",
    "categories": {
      "5": [
        0
      ],
      "6": [
        2
      ],
      "20": [
        4
      ]
    },
    "price": 8422281,
    "adress": "6463 Manitowish Street",
    "latitude": 4.73153,
    "longitude": -74.1294,
    "description": "celebrando la creatividad urbana."
  },
  {
    "id": 201,
    "name": "Reinger Group",
    "categories": {
      "11": [
        1
      ]
    },
    "price": 8042948,
    "adress": "99 Ronald Regan Trail",
    "latitude": 4.51344,
    "longitude": -74.20733,
    "description": "Asiste a la proyección de documentales sobre temas ambientales y sociales"
  },
  {
    "id": 202,
    "name": "Kuhlman Group",
    "categories": {
      "4": [
        0,
        2
      ],
      "7": [
        2,
        0
      ],
      "14": [
        0
      ]
    },
    "price": 7294169,
    "adress": "812 Mayfield Place",
    "latitude": 4.74243,
    "longitude": -74.02876,
    "description": "Conoce las últimas innovaciones en tecnología"
  },
  {
    "id": 203,
    "name": "Lubowitz-Waters",
    "categories": {
      "4": [
        3
      ],
      "17": [
        0
      ]
    },
    "price": 9916317,
    "adress": "4483 Boyd Place",
    "latitude": 4.67297,
    "longitude": -74.07971,
    "description": "Asiste a una conferencia sobre educación de calidad donde se discutirán las nuevas metodologías y estrategias para mejorar el aprendizaje en las escuelas."
  },
  {
    "id": 204,
    "name": "Erdman Inc",
    "categories": {
      "7": [
        0,
        1
      ]
    },
    "price": 1004728,
    "adress": "8194 Reindahl Street",
    "latitude": 4.66528,
    "longitude": -74.09714,
    "description": "Aprende sobre las tendencias actuales de moda sostenible en una feria donde diseñadores y marcas presentan sus colecciones más ecológicas y responsables."
  },
  {
    "id": 205,
    "name": "Connelly, Mohr and Rempel",
    "categories": {
      "20": [
        4
      ]
    },
    "price": 7050821,
    "adress": "0 Upham Avenue",
    "latitude": 4.57982,
    "longitude": -74.04908,
    "description": "Explora una feria artesanal donde podrás comprar piezas únicas y hechas a mano por artistas locales que celebran las tradiciones culturales."
  },
  {
    "id": 206,
    "name": "Hammes, Pouros and Welch",
    "categories": {
      "6": [
        2
      ],
      "17": [
        0
      ]
    },
    "price": 1910160,
    "adress": "8988 Beilfuss Junction",
    "latitude": 4.69997,
    "longitude": -74.04677,
    "description": "Participa en un torneo de fútbol donde equipos locales compiten por el trofeo de campeón en un ambiente lleno de emoción y trabajo en equipo."
  },
  {
    "id": 207,
    "name": "Krajcik-Turcotte",
    "categories": {
      "7": [
        0,
        3
      ],
      "10": [
        4,
        2
      ]
    },
    "price": 9980815,
    "adress": "116 Veith Hill",
    "latitude": 4.71823,
    "longitude": -74.24211,
    "description": "Asiste a un taller de mindfulness donde aprenderás técnicas de meditación y relajación para reducir el estrés y mejorar tu bienestar emocional."
  },
  {
    "id": 208,
    "name": "Daniel, O'Conner and Balistreri",
    "categories": {
      "13": [
        4,
        3
      ]
    },
    "price": 9765533,
    "adress": "90 Harper Street",
    "latitude": 4.47902,
    "longitude": -74.08941,
    "description": "mientras ayudas a recaudar fondos para causas caritativas."
  },
  {
    "id": 209,
    "name": "Williamson-Rodriguez",
    "categories": {
      "9": [
        3,
        4
      ],
      "18": [
        1
      ]
    },
    "price": 6236009,
    "adress": "5421 Old Gate Parkway",
    "latitude": 4.51421,
    "longitude": -74.2254,
    "description": "para relajarte y mejorar tu bienestar físico y mental en un entorno pacífico."
  },
  {
    "id": 210,
    "name": "Shanahan-Lubowitz",
    "categories": {
      "6": [
        3
      ]
    },
    "price": 5673939,
    "adress": "12 Starling Avenue",
    "latitude": 4.48189,
    "longitude": -74.09282,
    "description": "Disfruta de un festival de cine de terror con maratones de películas que te mantendrán al borde del asiento durante toda la noche."
  },
  {
    "id": 211,
    "name": "Tillman-Shields",
    "categories": {
      "4": [
        3,
        2
      ],
      "5": [
        3
      ]
    },
    "price": 2749594,
    "adress": "22551 Glacier Hill Terrace",
    "latitude": 4.64454,
    "longitude": -74.02175,
    "description": "Asiste a un congreso de negocios donde líderes de la industria compartirán estrategias clave para enfrentar los desafíos del mercado global."
  },
  {
    "id": 212,
    "name": "Walter Group",
    "categories": {
      "5": [
        0,
        2
      ],
      "13": [
        3,
        2
      ]
    },
    "price": 3030297,
    "adress": "731 Nevada Plaza",
    "latitude": 4.5911,
    "longitude": -74.15152,
    "description": "música en vivo y premios para los mejores disfraces de la noche."
  },
  {
    "id": 213,
    "name": "Considine-Franecki",
    "categories": {
      "13": [
        0,
        1
      ],
      "14": [
        1,
        3
      ]
    },
    "price": 2513375,
    "adress": "88752 Dexter Alley",
    "latitude": 4.71764,
    "longitude": -74.0912,
    "description": "en una feria donde las empresas más importantes presentan sus avances."
  },
  {
    "id": 214,
    "name": "Howell-Crooks",
    "categories": {
      "2": [
        3
      ],
      "14": [
        1,
        3
      ]
    },
    "price": 3204356,
    "adress": "35 Morrow Court",
    "latitude": 4.65236,
    "longitude": -74.09124,
    "description": "Vive una experiencia única en un viaje de ecoturismo que te llevará a explorar áreas naturales protegidas mientras contribuyes a su conservación."
  },
  {
    "id": 215,
    "name": "Koch-Shields",
    "categories": {
      "3": [
        1,
        2
      ]
    },
    "price": 308628,
    "adress": "28942 Pleasure Point",
    "latitude": 4.57589,
    "longitude": -74.06526,
    "description": "Descubre el mundo del cine animado en un festival que reúne a los mejores cortometrajes y largometrajes de animación de todo el mundo."
  },
  {
    "id": 216,
    "name": "Quitzon-Raynor",
    "categories": {
      "8": [
        0,
        3
      ],
      "9": [
        0
      ]
    },
    "price": 4217821,
    "adress": "8399 Melody Drive",
    "latitude": 4.64841,
    "longitude": -74.14176,
    "description": "Únete a una semana de la moda donde las pasarelas más importantes del mundo mostrarán las últimas tendencias de alta costura y diseño."
  },
  {
    "id": 217,
    "name": "Cassin-Kirlin",
    "categories": {
      "16": [
        0
      ]
    },
    "price": 9209705,
    "adress": "371 Algoma Court",
    "latitude": 4.66658,
    "longitude": -74.24772,
    "description": "comida casera y momentos inolvidables de convivencia."
  },
  {
    "id": 218,
    "name": "Hettinger-Beahan",
    "categories": {
      "1": [
        0,
        1
      ],
      "2": [
        4,
        3
      ],
      "3": [
        4
      ]
    },
    "price": 6305648,
    "adress": "98855 Havey Way",
    "latitude": 4.7213,
    "longitude": -74.23131,
    "description": "Participa en una conferencia sobre sostenibilidad donde líderes de la industria compartirán ideas y estrategias para un futuro más ecológico y responsable."
  },
  {
    "id": 219,
    "name": "Satterfield, Lubowitz and Cole",
    "categories": {
      "13": [
        0
      ],
      "18": [
        0
      ]
    },
    "price": 4288476,
    "adress": "4730 Independence Lane",
    "latitude": 4.66691,
    "longitude": -74.0363,
    "description": "Disfruta de los mejores DJs internacionales en una noche llena de luces"
  },
  {
    "id": 220,
    "name": "Greenholt, Abernathy and Balistreri",
    "categories": {
      "6": [
        1,
        2
      ],
      "10": [
        2
      ],
      "16": [
        3,
        2
      ]
    },
    "price": 8784768,
    "adress": "359 Banding Street",
    "latitude": 4.69534,
    "longitude": -74.04863,
    "description": "Aprende a crear tus propias piezas de cerámica en un taller práctico"
  },
  {
    "id": 221,
    "name": "Towne, Koch and Pfannerstill",
    "categories": {
      "12": [
        2,
        4
      ]
    },
    "price": 6739939,
    "adress": "309 Hayes Plaza",
    "latitude": 4.65505,
    "longitude": -74.05876,
    "description": "Explora una feria artesanal donde podrás comprar piezas únicas y hechas a mano por artistas locales que celebran las tradiciones culturales."
  },
  {
    "id": 222,
    "name": "Littel Group",
    "categories": {
      "5": [
        1
      ]
    },
    "price": 8779815,
    "adress": "137 Summerview Park",
    "latitude": 4.82554,
    "longitude": -74.07333,
    "description": "Participa en una caminata solidaria que recorre los paisajes más hermosos de la ciudad"
  },
  {
    "id": 223,
    "name": "Keeling-Stamm",
    "categories": {
      "4": [
        3,
        2
      ],
      "12": [
        0,
        1
      ]
    },
    "price": 5641539,
    "adress": "468 Fairview Hill",
    "latitude": 4.64089,
    "longitude": -74.05027,
    "description": "Vive la emoción de una fiesta de música en vivo con bandas locales que tocan los mejores éxitos y canciones originales."
  },
  {
    "id": 224,
    "name": "Howell, MacGyver and Dicki",
    "categories": {
      "8": [
        0,
        4
      ]
    },
    "price": 8632049,
    "adress": "7635 Debs Point",
    "latitude": 4.48137,
    "longitude": -74.07137,
    "description": "Únete a una semana de la moda donde las pasarelas más importantes del mundo mostrarán las últimas tendencias de alta costura y diseño."
  },
  {
    "id": 225,
    "name": "Jast-Paucek",
    "categories": {
      "3": [
        3,
        1
      ],
      "4": [
        0
      ]
    },
    "price": 4411806,
    "adress": "77 Drewry Hill",
    "latitude": 4.5464,
    "longitude": -74.01529,
    "description": "Ven disfrazado a una fiesta única llena de sorpresas"
  },
  {
    "id": 226,
    "name": "Rohan, Armstrong and Kuphal",
    "categories": {
      "20": [
        1
      ]
    },
    "price": 6607107,
    "adress": "1718 Shelley Place",
    "latitude": 4.5426,
    "longitude": -74.01611,
    "description": "Participa en una charla motivacional con emprendedores de éxito que compartirán sus experiencias y consejos para superar obstáculos y alcanzar tus metas."
  },
  {
    "id": 227,
    "name": "Zboncak, Marks and Collier",
    "categories": {
      "18": [
        1,
        3
      ],
      "19": [
        2,
        1
      ]
    },
    "price": 4344651,
    "adress": "51893 Milwaukee Lane",
    "latitude": 4.60075,
    "longitude": -74.17759,
    "description": "Expertos en inteligencia artificial presentarán los últimos avances en tecnología"
  },
  {
    "id": 228,
    "name": "Zboncak-Schaden",
    "categories": {
      "6": [
        0,
        1
      ]
    },
    "price": 2802770,
    "adress": "4071 Kim Point",
    "latitude": 4.62449,
    "longitude": -74.16968,
    "description": "explorando temas sociales y culturales a través de obras innovadoras."
  },
  {
    "id": 229,
    "name": "Kassulke, Buckridge and Frami",
    "categories": {
      "15": [
        2
      ],
      "20": [
        2,
        0
      ]
    },
    "price": 6867851,
    "adress": "74 Mallory Crossing",
    "latitude": 4.78239,
    "longitude": -74.1213,
    "description": "Sumérgete en un festival cultural que celebra las tradiciones locales con danzas folclóricas"
  },
  {
    "id": 230,
    "name": "Abshire, Koch and Walsh",
    "categories": {
      "1": [
        3
      ],
      "13": [
        3,
        0
      ]
    },
    "price": 5793709,
    "adress": "85 Farmco Junction",
    "latitude": 4.47147,
    "longitude": -74.24541,
    "description": "demostrando tus habilidades y ganando premios increíbles."
  },
  {
    "id": 231,
    "name": "Steuber-Brakus",
    "categories": {
      "1": [
        4,
        0
      ],
      "16": [
        4
      ],
      "19": [
        0,
        1
      ]
    },
    "price": 9949389,
    "adress": "0097 Kim Park",
    "latitude": 4.48957,
    "longitude": -74.07072,
    "description": "explorando desde el diseño gráfico hasta la programación básica."
  },
  {
    "id": 232,
    "name": "O'Kon Inc",
    "categories": {
      "7": [
        0
      ]
    },
    "price": 6039556,
    "adress": "8 Sugar Plaza",
    "latitude": 4.7369,
    "longitude": -73.99122,
    "description": "Explora una feria artesanal donde podrás comprar piezas únicas y hechas a mano por artistas locales que celebran las tradiciones culturales."
  },
  {
    "id": 233,
    "name": "Breitenberg and Sons",
    "categories": {
      "1": [
        2
      ],
      "2": [
        0,
        1
      ],
      "15": [
        3
      ]
    },
    "price": 2737915,
    "adress": "2 Sauthoff Avenue",
    "latitude": 4.78982,
    "longitude": -74.15161,
    "description": "Asiste a la proyección de documentales sobre temas ambientales y sociales"
  },
  {
    "id": 234,
    "name": "Berge-Bruen",
    "categories": {
      "1": [
        2,
        1
      ]
    },
    "price": 3204536,
    "adress": "5958 Butternut Circle",
    "latitude": 4.5405,
    "longitude": -74.0782,
    "description": "cantos en vivo y coreografías que te harán disfrutar de una noche inolvidable."
  },
  {
    "id": 235,
    "name": "Ferry-Willms",
    "categories": {
      "1": [
        2
      ],
      "6": [
        0,
        1
      ]
    },
    "price": 3412860,
    "adress": "9 Londonderry Road",
    "latitude": 4.66326,
    "longitude": -74.21567,
    "description": "Disfruta de una tarde de juegos de mesa donde podrás competir con amigos o familiares en una amplia variedad de juegos estratégicos y divertidos."
  },
  {
    "id": 236,
    "name": "Rempel, Wilderman and Emmerich",
    "categories": {
      "3": [
        1
      ],
      "18": [
        3
      ]
    },
    "price": 2972878,
    "adress": "68100 Westend Avenue",
    "latitude": 4.66281,
    "longitude": -74.11511,
    "description": "Disfruta de una noche de jazz en vivo con una banda que interpretará los mejores clásicos y nuevas composiciones en un ambiente relajado."
  },
  {
    "id": 237,
    "name": "Skiles and Sons",
    "categories": {
      "17": [
        4,
        3
      ]
    },
    "price": 1730640,
    "adress": "7013 Rowland Plaza",
    "latitude": 4.73326,
    "longitude": -74.03286,
    "description": "Vive la emoción de una fiesta de música en vivo con bandas locales que tocan los mejores éxitos y canciones originales."
  },
  {
    "id": 238,
    "name": "Jenkins, Farrell and Gutkowski",
    "categories": {
      "12": [
        0,
        3
      ]
    },
    "price": 451851,
    "adress": "0735 Eastwood Way",
    "latitude": 4.518,
    "longitude": -74.1336,
    "description": "degustando sus mejores platos y aprendiendo sobre sus ingredientes secretos."
  },
  {
    "id": 239,
    "name": "Reichel, Cummings and Mayert",
    "categories": {
      "14": [
        0
      ]
    },
    "price": 755491,
    "adress": "2222 Butterfield Plaza",
    "latitude": 4.81192,
    "longitude": -74.01288,
    "description": "para relajarte y mejorar tu bienestar físico y mental en un entorno pacífico."
  },
  {
    "id": 240,
    "name": "Hartmann-Howell",
    "categories": {
      "5": [
        4,
        2
      ],
      "6": [
        2,
        1
      ]
    },
    "price": 8835497,
    "adress": "51 Mesta Drive",
    "latitude": 4.79937,
    "longitude": -74.02862,
    "description": "Asiste a una exposición de arte callejero donde grafiteros de renombre presentan sus murales más recientes en un espacio público"
  },
  {
    "id": 241,
    "name": "Mills Inc",
    "categories": {
      "12": [
        4
      ]
    },
    "price": 4054485,
    "adress": "5 Derek Hill",
    "latitude": 4.72486,
    "longitude": -74.1291,
    "description": "para relajarte y mejorar tu bienestar físico y mental en un entorno pacífico."
  },
  {
    "id": 242,
    "name": "Becker-Cummerata",
    "categories": {
      "14": [
        3
      ],
      "18": [
        4
      ]
    },
    "price": 4870358,
    "adress": "653 Delaware Street",
    "latitude": 4.64264,
    "longitude": -74.01949,
    "description": "el bienestar y la actividad física en un evento lleno de energía."
  },
  {
    "id": 243,
    "name": "Carter-Breitenberg",
    "categories": {
      "10": [
        0
      ],
      "12": [
        0,
        1
      ],
      "15": [
        2
      ]
    },
    "price": 7276866,
    "adress": "6 Texas Trail",
    "latitude": 4.5103,
    "longitude": -74.12573,
    "description": "Únete a miles de corredores en un maratón por la ciudad"
  },
  {
    "id": 244,
    "name": "Kuhlman, Johnston and Wiegand",
    "categories": {
      "9": [
        3
      ],
      "11": [
        0
      ],
      "17": [
        3
      ]
    },
    "price": 9756970,
    "adress": "7701 Starling Terrace",
    "latitude": 4.77096,
    "longitude": -74.11524,
    "description": "baile y fuegos artificiales que te harán despedir el año en grande."
  },
  {
    "id": 245,
    "name": "Dach-Davis",
    "categories": {
      "10": [
        2,
        0
      ]
    },
    "price": 8332691,
    "adress": "5657 Sunfield Circle",
    "latitude": 4.64508,
    "longitude": -74.20363,
    "description": "Vive una noche mágica en una fiesta de fin de año con música"
  },
  {
    "id": 246,
    "name": "Kassulke-Beer",
    "categories": {
      "2": [
        1
      ],
      "14": [
        3
      ]
    },
    "price": 7117027,
    "adress": "85 Arkansas Point",
    "latitude": 4.54497,
    "longitude": -74.1355,
    "description": "subastas y cenas exquisitas para apoyar una causa social importante."
  },
  {
    "id": 247,
    "name": "Kassulke-O'Connell",
    "categories": {
      "1": [
        0,
        3
      ],
      "2": [
        1,
        3
      ],
      "4": [
        3
      ]
    },
    "price": 6625226,
    "adress": "64 Forest Run Park",
    "latitude": 4.65331,
    "longitude": -74.02625,
    "description": "Conoce las últimas innovaciones en tecnología"
  },
  {
    "id": 248,
    "name": "Zulauf-Hyatt",
    "categories": {
      "13": [
        2
      ],
      "14": [
        3
      ],
      "15": [
        2
      ]
    },
    "price": 498578,
    "adress": "354 Dennis Pass",
    "latitude": 4.74392,
    "longitude": -74.20649,
    "description": "Participa en una caminata solidaria que recorre los paisajes más hermosos de la ciudad"
  },
  {
    "id": 249,
    "name": "Hessel LLC",
    "categories": {
      "5": [
        3
      ],
      "7": [
        3,
        2
      ],
      "10": [
        3
      ]
    },
    "price": 9978175,
    "adress": "72220 Nelson Trail",
    "latitude": 4.52958,
    "longitude": -74.11537,
    "description": "Descubre el mundo del cine animado en un festival que reúne a los mejores cortometrajes y largometrajes de animación de todo el mundo."
  },
  {
    "id": 250,
    "name": "Muller-Hyatt",
    "categories": {
      "11": [
        4
      ],
      "18": [
        0,
        1
      ]
    },
    "price": 6685710,
    "adress": "5 Magdeline Parkway",
    "latitude": 4.74762,
    "longitude": -74.14851,
    "description": "Comparte una noche de teatro experimental donde las emociones se transmiten a través de actuaciones impactantes y minimalistas."
  },
  {
    "id": 251,
    "name": "Hudson, Schulist and Medhurst",
    "categories": {
      "1": [
        3,
        2
      ],
      "3": [
        0
      ]
    },
    "price": 1004479,
    "adress": "6502 Bellgrove Center",
    "latitude": 4.75542,
    "longitude": -73.99989,
    "description": "explorando desde el diseño gráfico hasta la programación básica."
  },
  {
    "id": 252,
    "name": "Morissette Group",
    "categories": {
      "2": [
        1
      ],
      "4": [
        0
      ],
      "6": [
        1
      ]
    },
    "price": 163746,
    "adress": "4 Lindbergh Pass",
    "latitude": 4.56774,
    "longitude": -74.13741,
    "description": "Comparte una noche de teatro experimental donde las emociones se transmiten a través de actuaciones impactantes y minimalistas."
  },
  {
    "id": 253,
    "name": "Gutmann, Littel and Ullrich",
    "categories": {
      "9": [
        3,
        4
      ]
    },
    "price": 5366796,
    "adress": "754 Butterfield Avenue",
    "latitude": 4.61183,
    "longitude": -74.11021,
    "description": "Asiste a un congreso de negocios donde líderes de la industria compartirán estrategias clave para enfrentar los desafíos del mercado global."
  },
  {
    "id": 254,
    "name": "Denesik LLC",
    "categories": {
      "5": [
        0
      ],
      "9": [
        1,
        0
      ],
      "20": [
        1,
        0
      ]
    },
    "price": 2447941,
    "adress": "6 Rigney Alley",
    "latitude": 4.55964,
    "longitude": -74.10958,
    "description": "Vive la adrenalina de un torneo de baloncesto donde los equipos locales compiten por el título de campeones en un ambiente lleno de energía."
  },
  {
    "id": 255,
    "name": "Kuhlman-Donnelly",
    "categories": {
      "8": [
        2,
        3
      ],
      "17": [
        4,
        3
      ],
      "19": [
        4
      ]
    },
    "price": 8281187,
    "adress": "77469 Oxford Avenue",
    "latitude": 4.49286,
    "longitude": -74.24735,
    "description": "Vive la adrenalina de un torneo de baloncesto donde los equipos locales compiten por el título de campeones en un ambiente lleno de energía."
  },
  {
    "id": 256,
    "name": "Feeney-Berge",
    "categories": {
      "15": [
        1,
        2
      ]
    },
    "price": 429246,
    "adress": "34043 American Ash Park",
    "latitude": 4.58964,
    "longitude": -74.04186,
    "description": "comida casera y momentos inolvidables de convivencia."
  },
  {
    "id": 257,
    "name": "Reynolds, Dickens and Turner",
    "categories": {
      "16": [
        4,
        3
      ],
      "17": [
        0,
        1
      ],
      "18": [
        0,
        3
      ]
    },
    "price": 4490318,
    "adress": "5 Chive Point",
    "latitude": 4.79944,
    "longitude": -74.23161,
    "description": "con proyecciones especiales de cineastas emergentes que abordan temas únicos y provocadores."
  },
  {
    "id": 258,
    "name": "Gulgowski LLC",
    "categories": {
      "2": [
        3
      ],
      "6": [
        0,
        4
      ],
      "7": [
        3,
        2
      ]
    },
    "price": 52387,
    "adress": "77 Elka Lane",
    "latitude": 4.58746,
    "longitude": -74.19084,
    "description": "Participa en una charla interreligiosa donde representantes de diversas creencias discutirán temas comunes y promoverán el entendimiento mutuo."
  },
  {
    "id": 259,
    "name": "King Group",
    "categories": {
      "11": [
        1,
        0
      ]
    },
    "price": 1236938,
    "adress": "1 Westridge Way",
    "latitude": 4.76025,
    "longitude": -74.13694,
    "description": "Descubre el mundo del cine animado en un festival que reúne a los mejores cortometrajes y largometrajes de animación de todo el mundo."
  },
  {
    "id": 260,
    "name": "Lehner and Sons",
    "categories": {
      "2": [
        2,
        0
      ]
    },
    "price": 2561550,
    "adress": "8 Washington Drive",
    "latitude": 4.57216,
    "longitude": -74.09688,
    "description": "degustando sus mejores platos y aprendiendo sobre sus ingredientes secretos."
  },
  {
    "id": 261,
    "name": "Marvin Inc",
    "categories": {
      "8": [
        2
      ],
      "14": [
        4,
        3
      ]
    },